,id,locality,population,hommes,femmes,settlement_type,region,departement,commune,longitude,latitude,commune_ID,departement_ID,region_ID,GPS_ID,renaloc_ID,bureau_ID,bureau,N_voters
0,0,ABALAMA,704,360.0,344,VA,AGADEZ,ADERBISSINAT,ADERBISSINAT,8.067222222,16.31,10101,101,1,10301.0,2,10101055,ABALAMA1,300
1,1,ABALAMA,704,360.0,344,VA,AGADEZ,ADERBISSINAT,ADERBISSINAT,8.067222222,16.31,10101,101,1,10301.0,2,10101085,ABALAMA2,295
2,2,AKOUEL (AKOYAL),129,78.0,51,VA,AGADEZ,ADERBISSINAT,ADERBISSINAT,8.085555556,15.65305556,10101,101,1,10301.0,14,10101054,AKOUAL,182
3,3,AMAZEGRI,191,104.0,87,PE,AGADEZ,ADERBISSINAT,ADERBISSINAT,7.786944444,16.40694444,10101,101,1,10301.0,17,10101026,AMAZEGRI,222
4,4,ANIALE (ERWA),262,142.0,120,VA,AGADEZ,ADERBISSINAT,ADERBISSINAT,7.894166667,16.23111111,10101,101,1,10301.0,18,10101057,ANIELE,159
5,5,ATTAMBO,132,71.0,61,PE,AGADEZ,ADERBISSINAT,ADERBISSINAT,8.321388889,15.84527778,10101,101,1,10301.0,23,10101073,ATTAMBO,176
6,6,BAGGO,228,112.0,116,PE,AGADEZ,ADERBISSINAT,ADERBISSINAT,7.853611111,15.78555556,10101,101,1,10301.0,25,10101050,BAGO,314
7,7,BORI,58,32.0,26,PE,AGADEZ,ADERBISSINAT,ADERBISSINAT,7.664166667,15.9375,10101,101,1,10301.0,29,10101083,BORI,288
8,8,BOURGOUTAN,163,92.0,71,PE,AGADEZ,ADERBISSINAT,ADERBISSINAT,7.801388889,16.68916667,10101,101,1,10301.0,30,10101007,BOURGOUTAN,152
9,9,ECHIA,296,140.0,156,PE,AGADEZ,ADERBISSINAT,ADERBISSINAT,8.058055556,15.68138889,10101,101,1,10301.0,36,10101089,ECHIA,201
10,10,ECHKAR,856,483.0,373,,AGADEZ,ADERBISSINAT,ADERBISSINAT,9.286111111,15.9825,10101,101,1,10301.0,37,10101074,ECHKAR TAGAZA,120
11,11,EFARTEY,7,3.0,4,PE,AGADEZ,ADERBISSINAT,ADERBISSINAT,8.130555556,16.11027778,10101,101,1,10301.0,38,10101072,EFFARTAY,261
12,12,EGUEF (TOUDOUN FEDOU),405,205.0,200,VA,AGADEZ,ADERBISSINAT,ADERBISSINAT,7.454722222,15.55777778,10101,101,1,10301.0,45,10101046,EGUEF,412
13,13,ERIDALANE,78,44.0,34,PE,AGADEZ,ADERBISSINAT,ADERBISSINAT,7.546111111,16.06861111,10101,101,1,10301.0,46,10101035,ERIDALANE,91
14,14,EZAWZAW,261,144.0,117,PE,AGADEZ,ADERBISSINAT,ADERBISSINAT,7.783888889,16.0625,10101,101,1,10301.0,47,10101032,EZAWZAW,155
15,15,FOUTA,333,181.0,152,VA,AGADEZ,ADERBISSINAT,ADERBISSINAT,7.848333333,15.8775,10101,101,1,10301.0,51,10101036,FOUTA 1,69
16,16,GABDOUANE,48,24.0,24,PE,AGADEZ,ADERBISSINAT,ADERBISSINAT,8.104722222,15.93833333,10101,101,1,10301.0,52,10101071,GABDOUANE,128
17,17,GALADIMA,79,46.0,33,PE,AGADEZ,ADERBISSINAT,ADERBISSINAT,8.025,16.03972222,10101,101,1,10301.0,53,10101066,GALADIMA,280
18,18,GARMAGA,444,248.0,196,PE,AGADEZ,ADERBISSINAT,ADERBISSINAT,7.230833333,15.99944444,10101,101,1,10301.0,55,10101029,GARMAGA,204
19,19,GUERMAWANE,276,143.0,133,PE,AGADEZ,ADERBISSINAT,ADERBISSINAT,7.545555556,15.71638889,10101,101,1,10301.0,56,10101043,GUERMAWAN,224
20,20,HAMBOBILLA,311,166.0,145,PE,AGADEZ,ADERBISSINAT,ADERBISSINAT,8.328888889,15.85416667,10101,101,1,10301.0,58,10101061,HAMBOBILA,170
21,21,IMBORAGHAN,265,131.0,134,PE,AGADEZ,ADERBISSINAT,ADERBISSINAT,7.721111111,15.87694444,10101,101,1,10301.0,65,10101045,IMBORAGAN,344
22,22,INGARFANE,126,69.0,57,PE,AGADEZ,ADERBISSINAT,ADERBISSINAT,8.560555556,15.98694444,10101,101,1,10301.0,70,10101065,INGUIRFANE,126
23,23,INKADEWAN,296,168.0,128,PE,AGADEZ,ADERBISSINAT,ADERBISSINAT,8.375277778,16.38944444,10101,101,1,10301.0,71,10101063,INKADEWAN EST,312
24,24,INKADEWANE/OUEST,151,78.0,73,PE,AGADEZ,ADERBISSINAT,ADERBISSINAT,8.036944444,16.19444444,10101,101,1,10301.0,72,10101033,INKADEWAN OUEST ,146
25,25,INTARAKAT,92,46.0,46,PE,AGADEZ,ADERBISSINAT,ADERBISSINAT,8.013055556,16.07944444,10101,101,1,10301.0,75,10101015,INTARAKAT,336
26,26,KARNAGAR,180,101.0,79,PE,AGADEZ,ADERBISSINAT,ADERBISSINAT,8.640555556,15.8275,10101,101,1,10301.0,88,10101076,KARNAGAN,150
27,27,MADINA,309,162.0,147,H,AGADEZ,ADERBISSINAT,ADERBISSINAT,7.883333333,16.29944444,10101,101,1,10301.0,93,10101088,MADINA,77
28,28,MAI GAWIYI,175,89.0,86,PE,AGADEZ,ADERBISSINAT,ADERBISSINAT,8.358611111,15.91805556,10101,101,1,10301.0,95,10101075,MAIGAWAYE,212
29,29,MAMMA,70,36.0,34,PE,AGADEZ,ADERBISSINAT,ADERBISSINAT,7.377777778,15.90611111,10101,101,1,10301.0,96,10101039,MAMA,193
30,30,MARANDAT,652,321.0,331,VA,AGADEZ,ADERBISSINAT,ADERBISSINAT,7.625555556,16.41555556,10101,101,1,10301.0,97,10101012,MARANDAT,479
31,31,SOUKOUMOUR II(2),696,355.0,341,PE,AGADEZ,ADERBISSINAT,ADERBISSINAT,7.556388889,16.2475,10101,101,1,10301.0,108,10101024,SOUKOUMOUR,354
32,32,SOUKOUMOUR (1),169,84.0,85,PE,AGADEZ,ADERBISSINAT,ADERBISSINAT,7.449166667,16.17027778,10101,101,1,10301.0,109,10101024,SOUKOUMOUR,354
33,33,TABALBAL,73,32.0,41,PE,AGADEZ,ADERBISSINAT,ADERBISSINAT,7.619444444,15.60944444,10101,101,1,10301.0,110,10101080,TABALBAL,151
34,34,TADIBENE,131,73.0,58,VA,AGADEZ,ADERBISSINAT,ADERBISSINAT,7.936666667,16.52638889,10101,101,1,10301.0,112,10101017,TADIBENE,129
35,35,TAGDOFAT,267,130.0,137,VA,AGADEZ,ADERBISSINAT,ADERBISSINAT,8.690833333,16.15861111,10101,101,1,10301.0,114,10101060,TAGDOFAT 1,407
36,36,TCHINIKLI,34,16.0,18,PE,AGADEZ,ADERBISSINAT,ADERBISSINAT,7.651944444,15.89277778,10101,101,1,10301.0,127,10101041,TCHINIKLI,80
37,37,TCHINTABORAK/SUD,1168,587.0,581,VA,AGADEZ,ADERBISSINAT,ADERBISSINAT,7.513611111,15.86805556,10101,101,1,10301.0,130,10101042,TCHINTABORAK SUD 1,289
38,38,TCHINTABORAK/SUD,1168,587.0,581,VA,AGADEZ,ADERBISSINAT,ADERBISSINAT,7.513611111,15.86805556,10101,101,1,10301.0,130,10101084,TCHINTABORAK SUD2,293
39,39,TCHOUGASS,240,113.0,127,VA,AGADEZ,ADERBISSINAT,ADERBISSINAT,7.732222222,15.8125,10101,101,1,10301.0,132,10101048,TCHOUGAS,287
40,40,TEBIRGUIT,207,109.0,98,PE,AGADEZ,ADERBISSINAT,ADERBISSINAT,8.689444444,16.05,10101,101,1,10301.0,133,10101062,TEBIRGUIT,97
41,41,TETOUKOUNOUT,240,123.0,117,PE,AGADEZ,ADERBISSINAT,ADERBISSINAT,7.439722222,15.99888889,10101,101,1,10301.0,135,10101037,TETOUKOUNOUT,182
42,42,TIGUIDIT,125,62.0,63,H,AGADEZ,ADERBISSINAT,ADERBISSINAT,7.976666667,16.44666667,10101,101,1,10301.0,136,10101016,TIGUIDIT ,206
43,43,TILIA,179,92.0,87,PE,AGADEZ,ADERBISSINAT,ADERBISSINAT,7.919722222,16.29166667,10101,101,1,10301.0,137,10101023,TILIA,152
44,44,TOROUF,355,178.0,177,PE,AGADEZ,ADERBISSINAT,ADERBISSINAT,7.723055556,16.63611111,10101,101,1,10301.0,138,10101008,TOUROUF,309
45,45,TOUGBALANA,339,173.0,166,PE,AGADEZ,ADERBISSINAT,ADERBISSINAT,8.058611111,15.70055556,10101,101,1,10301.0,139,10101052,TOUGBALANA,367
46,46,WADATA,66,37.0,29,PE,AGADEZ,ADERBISSINAT,ADERBISSINAT,8.098611111,15.97277778,10101,101,1,10301.0,144,10101034,WADATA,130
47,47,zergaw,183,93.0,90,PE,AGADEZ,ADERBISSINAT,ADERBISSINAT,7.797777778,16.33916667,10101,101,1,10301.0,147,10101022,ZARGAW,426
48,48,ZERGAW II,76,42.0,34,PE,AGADEZ,ADERBISSINAT,ADERBISSINAT,7.650277778,16.38333333,10101,101,1,10301.0,148,10101022,ZARGAW,426
49,49,TCHINGALENE,949,472.0,477,QT,AGADEZ,ARLIT,ARLIT,7.516944444,18.87805556,10201,102,1,10101.0,150,10201005,TCHINGALENE,487
50,50,CITE SOMAIR AREVA,6643,3604.0,3039,QT,AGADEZ,ARLIT,ARLIT,7.407222222,18.76083333,10201,102,1,10101.0,151,10201028,CITE SOMAIR AREVA A,461
51,51,CITE SOMAIR AREVA,6643,3604.0,3039,QT,AGADEZ,ARLIT,ARLIT,7.407222222,18.76083333,10201,102,1,10101.0,151,10201029,CITE SOMAIR AREVA B,451
52,52,CITE SOMAIR AREVA,6643,3604.0,3039,QT,AGADEZ,ARLIT,ARLIT,7.407222222,18.76083333,10201,102,1,10101.0,151,10201030,CITE SOMAIR AREVA C,468
53,53,CITE SOMAIR AREVA,6643,3604.0,3039,QT,AGADEZ,ARLIT,ARLIT,7.407222222,18.76083333,10201,102,1,10101.0,151,10201031,CITE SOMAIR AREVA D,454
54,54,CITE SOMAIR AREVA,6643,3604.0,3039,QT,AGADEZ,ARLIT,ARLIT,7.407222222,18.76083333,10201,102,1,10101.0,151,10201032,CITE SOMAIR AREVA E ,442
55,55,CITE SOMAIR AREVA,6643,3604.0,3039,QT,AGADEZ,ARLIT,ARLIT,7.407222222,18.76083333,10201,102,1,10101.0,151,10201033,CITE SOMAIR AREVA F ,460
56,56,TAMESNA (QUARTIER ADMINNISTRATIF),3922,2064.0,1858,QT,AGADEZ,ARLIT,ARLIT,7.385555556,18.82027778,10201,102,1,10101.0,152,10201001,TAMESNA A,439
57,57,TAMESNA (QUARTIER ADMINNISTRATIF),3922,2064.0,1858,QT,AGADEZ,ARLIT,ARLIT,7.385555556,18.82027778,10201,102,1,10101.0,152,10201002,TAMESNA B,435
58,58,TAMESNA (QUARTIER ADMINNISTRATIF),3922,2064.0,1858,QT,AGADEZ,ARLIT,ARLIT,7.385555556,18.82027778,10201,102,1,10101.0,152,10201003,TAMESNA C,443
59,59,TAMESNA (QUARTIER ADMINNISTRATIF),3922,2064.0,1858,QT,AGADEZ,ARLIT,ARLIT,7.385555556,18.82027778,10201,102,1,10101.0,152,10201004,TAMESNA D,443
60,60,ZANGO,3351,1719.0,1632,QT,AGADEZ,ARLIT,ARLIT,7.437777778,18.78722222,10201,102,1,10101.0,153,10201008,ZANGO A ,474
61,61,ZANGO,3351,1719.0,1632,QT,AGADEZ,ARLIT,ARLIT,7.437777778,18.78722222,10201,102,1,10101.0,153,10201009,ZANGO B,412
62,62,ZANGO,3351,1719.0,1632,QT,AGADEZ,ARLIT,ARLIT,7.437777778,18.78722222,10201,102,1,10101.0,153,10201010,ZANGO C,429
63,63,SAHEL,3139,1627.0,1512,QT,AGADEZ,ARLIT,ARLIT,7.409166667,18.86305556,10201,102,1,10101.0,154,10201006,SAHEL A,459
64,64,SAHEL,3139,1627.0,1512,QT,AGADEZ,ARLIT,ARLIT,7.409166667,18.86305556,10201,102,1,10101.0,154,10201007,SAHEL B,459
65,65,WADATA,3265,1702.0,1563,QT,AGADEZ,ARLIT,ARLIT,7.496666667,18.84305556,10201,102,1,10101.0,155,10201011,WADATA A,421
66,66,WADATA,3265,1702.0,1563,QT,AGADEZ,ARLIT,ARLIT,7.496666667,18.84305556,10201,102,1,10101.0,155,10201012,WADATA B,429
67,67,WADATA,3265,1702.0,1563,QT,AGADEZ,ARLIT,ARLIT,7.496666667,18.84305556,10201,102,1,10101.0,155,10201013,WADATA C,411
68,68,CARRE NOUVEAU MARCHE,7048,3682.0,3366,QT,AGADEZ,ARLIT,ARLIT,7.405,18.82055556,10201,102,1,10101.0,156,10201019,CARRE NOUVEAU MARCHE A,402
69,69,CARRE NOUVEAU MARCHE,7048,3682.0,3366,QT,AGADEZ,ARLIT,ARLIT,7.405,18.82055556,10201,102,1,10101.0,156,10201020,CARRE NOUVEAU MARCHE B,418
70,70,CARRE NOUVEAU MARCHE,7048,3682.0,3366,QT,AGADEZ,ARLIT,ARLIT,7.405,18.82055556,10201,102,1,10101.0,156,10201021,CARRE NOUVEAU MARCHE C,377
71,71,CARRE NOUVEAU MARCHE,7048,3682.0,3366,QT,AGADEZ,ARLIT,ARLIT,7.405,18.82055556,10201,102,1,10101.0,156,10201022,CARRE NOUVEAU MARCHE D,409
72,72,CARRE NOUVEAU MARCHE,7048,3682.0,3366,QT,AGADEZ,ARLIT,ARLIT,7.405,18.82055556,10201,102,1,10101.0,156,10201023,CARRE NOUVEAU MARCHE E,413
73,73,CARRE SNTN,7207,3796.0,3411,QT,AGADEZ,ARLIT,ARLIT,7.421111111,18.98138889,10201,102,1,10101.0,157,10201014,CARRE SNTN A,428
74,74,CARRE SNTN,7207,3796.0,3411,QT,AGADEZ,ARLIT,ARLIT,7.421111111,18.98138889,10201,102,1,10101.0,157,10201015,CARRE SNTN B,435
75,75,CARRE SNTN,7207,3796.0,3411,QT,AGADEZ,ARLIT,ARLIT,7.421111111,18.98138889,10201,102,1,10101.0,157,10201016,CARRE SNTN C,437
76,76,CARRE SNTN,7207,3796.0,3411,QT,AGADEZ,ARLIT,ARLIT,7.421111111,18.98138889,10201,102,1,10101.0,157,10201017,CARRE SNTN D,441
77,77,CARRE SNTN,7207,3796.0,3411,QT,AGADEZ,ARLIT,ARLIT,7.421111111,18.98138889,10201,102,1,10101.0,157,10201018,CARRE SNTN E,396
78,78,TCHETCHENI,2212,1215.0,997,QT,AGADEZ,ARLIT,ARLIT,7.373333333,18.91083333,10201,102,1,10101.0,160,10201058,TCHETCHENI A,410
79,79,TCHETCHENI,2212,1215.0,997,QT,AGADEZ,ARLIT,ARLIT,7.373333333,18.91083333,10201,102,1,10101.0,160,10201059,TCHETCHENI B,422
80,80,TCHETCHENI,2212,1215.0,997,QT,AGADEZ,ARLIT,ARLIT,7.373333333,18.91083333,10201,102,1,10101.0,160,10201060,TCHETCHENI C,410
81,81,TAKRISSA CHETIMA (BAGDAD),1438,733.0,705,QT,AGADEZ,ARLIT,ARLIT,7.4725,18.94055556,10201,102,1,10101.0,165,10201064,TAKRISSA CHETIMA A,314
82,82,TAKRISSA CHETIMA (BAGDAD),1438,733.0,705,QT,AGADEZ,ARLIT,ARLIT,7.4725,18.94055556,10201,102,1,10101.0,165,10201065,TAKRISSA CHETIMA B ,314
83,83,ABALAJAWAD,60,30.0,30,PE,AGADEZ,ARLIT,DANNET,7.391666667,18.10694444,10202,102,1,10102.0,171,10202044,ABALAJAWAD,147
84,84,ACHEKI,270,132.0,138,PE,AGADEZ,ARLIT,DANNET,7.522222222,18.395,10202,102,1,10102.0,172,10202027,ACHEKI,390
85,85,AGATARAK,636,318.0,318,PE,AGADEZ,ARLIT,DANNET,7.788888889,17.96138889,10202,102,1,10102.0,173,10202010,AGATARAK,163
86,86,ANOUNAGROUF,411,230.0,181,PE,AGADEZ,ARLIT,DANNET,7.714444444,18.11416667,10202,102,1,10102.0,175,10202020,ANOUNAGROUF 1,212
87,87,AZAR,336,181.0,155,PE,AGADEZ,ARLIT,DANNET,7.97,18.17472222,10202,102,1,10102.0,179,10202007,AZAR,178
88,88,IKALAN ZAGARANE,708,369.0,339,PE,AGADEZ,ARLIT,DANNET,7.976111111,18.43083333,10202,102,1,10102.0,183,10202001,IKALAN ZAGARANE 1,256
89,89,IKALAN ZAGARANE,708,369.0,339,PE,AGADEZ,ARLIT,DANNET,7.976111111,18.43083333,10202,102,1,10102.0,183,10202002,IKALAN ZAGARANE 2,436
90,90,OUFOUD,896,469.0,427,PE,AGADEZ,ARLIT,DANNET,7.969444444,18.13972222,10202,102,1,10102.0,191,10202009,OUFOUD,225
91,91,TAKARACHE,652,357.0,295,PE,AGADEZ,ARLIT,DANNET,6.9725,18.12555556,10202,102,1,10102.0,193,10202023,TAKARACHE,138
92,92,TALAGLAG,243,128.0,115,PE,AGADEZ,ARLIT,DANNET,7.8925,18.13805556,10202,102,1,10102.0,194,10202005,TALAGLAG,244
93,93,TEBNIT,101,55.0,46,PE,AGADEZ,ARLIT,DANNET,7.615,18.25,10202,102,1,10102.0,206,10202039,TEBNIT,180
94,94,TEMILT,128,64.0,64,PE,AGADEZ,ARLIT,DANNET,7.746666667,17.97194444,10202,102,1,10102.0,208,10202040,TEMILT ,156
95,95,TEZIRFITIK,121,64.0,57,PE,AGADEZ,ARLIT,DANNET,7.135,17.93861111,10202,102,1,10102.0,209,10202018,TEZIRFITIK,264
96,96,EZIL,311,156.0,155,CPT,AGADEZ,ARLIT,GOUGARAM,7.866944444,18.85666667,10203,102,1,10103.0,230,10203023,EZIL,98
97,97,MAZALALE,138,76.0,62,CPT,AGADEZ,ARLIT,GOUGARAM,8.048055556,18.51027778,10203,102,1,10103.0,239,10203021,MAZALALE,125
98,98,TAKRIZA,586,298.0,288,CPT,AGADEZ,ARLIT,GOUGARAM,7.973333333,19.09138889,10203,102,1,10103.0,243,10203032,TAKRIZA,190
99,99,TCHIMAZALE,4,3.0,1,PE,AGADEZ,ARLIT,GOUGARAM,7.952222222,18.57972222,10203,102,1,10103.0,247,10203022,TCHIMAZALE,328
100,100,TEGOUNOUT,273,140.0,133,CPT,AGADEZ,ARLIT,GOUGARAM,8.0125,18.47111111,10203,102,1,10103.0,249,10203012,TEGOUNOUT,187
101,101,ZANAWEY,257,129.0,128,CPT,AGADEZ,ARLIT,GOUGARAM,7.848055556,18.8525,10203,102,1,10103.0,253,10203015,ZANAWEY,117
102,102,EZAZAW,302,162.0,140,PE,AGADEZ,ARLIT,GOUGARAM,7.608333333,19.44777778,10203,102,1,10103.0,254,10203031,EZAZAW,376
103,103,TALAT,400,202.0,198,CPT,AGADEZ,ARLIT,GOUGARAM,7.863055556,18.50083333,10203,102,1,10103.0,256,10203009,TALAT,179
104,104,ZOBABA,142,59.0,83,VA,AGADEZ,BILMA,BILMA,13.09694444,18.31194444,10301,103,1,10201.0,259,10301002,ZOBABA,91
105,105,ACHINOUMA,581,265.0,316,VA,AGADEZ,BILMA,DIRKOU,13.02416667,19.32722222,10302,103,1,10202.0,260,10302001,ACHINOUMA,321
106,106,ANEYE,651,291.0,360,VA,AGADEZ,BILMA,DIRKOU,13.15027778,19.42083333,10302,103,1,10202.0,261,10302002,ANEYE,289
107,107,ARGUI,485,241.0,244,VA,AGADEZ,BILMA,DIRKOU,12.94388889,19.24722222,10302,103,1,10202.0,262,10302003,ARGUI,279
108,108,BEZZA,255,125.0,130,VA,AGADEZ,BILMA,DIRKOU,12.97416667,18.9725,10302,103,1,10202.0,263,10302004,BEZZA,132
109,109,DIRKOU,7204,3585.0,3619,VA,AGADEZ,BILMA,DIRKOU,13.04166667,19.16138889,10302,103,1,10202.0,265,10302007,DIRKOU 7,233
110,110,DIRKOU,7204,3585.0,3619,VA,AGADEZ,BILMA,DIRKOU,13.04166667,19.16138889,10302,103,1,10202.0,265,10302008,DIRKOU 8,231
111,111,DIRKOU,7204,3585.0,3619,VA,AGADEZ,BILMA,DIRKOU,13.04166667,19.16138889,10302,103,1,10202.0,265,10302009,DIRKOU 9,334
112,112,DIRKOU,7204,3585.0,3619,VA,AGADEZ,BILMA,DIRKOU,13.04166667,19.16138889,10302,103,1,10202.0,265,10302010,DIRKOU 10,319
113,113,DIRKOU,7204,3585.0,3619,VA,AGADEZ,BILMA,DIRKOU,13.04166667,19.16138889,10302,103,1,10202.0,265,10302011,DIRKOU 11,345
114,114,DIRKOU,7204,3585.0,3619,VA,AGADEZ,BILMA,DIRKOU,13.04166667,19.16138889,10302,103,1,10202.0,265,10302012,DIRKOU 12,293
115,115,DIRKOU,7204,3585.0,3619,VA,AGADEZ,BILMA,DIRKOU,13.04166667,19.16138889,10302,103,1,10202.0,265,10302013,DIRKOU 13,249
116,116,DIRKOU,7204,3585.0,3619,VA,AGADEZ,BILMA,DIRKOU,13.04166667,19.16138889,10302,103,1,10202.0,265,10302014,DIRKOU 14,251
117,117,DIRKOU,7204,3585.0,3619,VA,AGADEZ,BILMA,DIRKOU,13.04166667,19.16138889,10302,103,1,10202.0,265,10302015,DIRKOU 15,315
118,118,EMITCHOUMA,136,65.0,71,VA,AGADEZ,BILMA,DIRKOU,13.10916667,19.35277778,10302,103,1,10202.0,266,10302016,EMITCHOUMA,79
119,119,CHIRFA,288,146.0,142,VA,AGADEZ,BILMA,DJADO,12.44166667,21.05444444,10303,103,1,10203.0,270,10303001,CHIRFA,308
120,120,SIGUIDINE,381,194.0,187,VA,AGADEZ,BILMA,DJADO,12.97111111,20.40277778,10303,103,1,10203.0,272,10303003,SIGUIDINE,261
121,121,YABA,42,24.0,18,VA,AGADEZ,BILMA,DJADO,12.29583333,21.22138889,10303,103,1,10203.0,274,10303002,YABA,29
122,122,FACHI,2215,1064.0,1151,VA,AGADEZ,BILMA,FACHI,11.58333333,18.20111111,10304,103,1,10204.0,275,10304001,FACHI,294
123,123,FACHI,2215,1064.0,1151,VA,AGADEZ,BILMA,FACHI,11.58333333,18.20111111,10304,103,1,10204.0,275,10304002,FACHI,300
124,124,FACHI,2215,1064.0,1151,VA,AGADEZ,BILMA,FACHI,11.58333333,18.20111111,10304,103,1,10204.0,275,10304003,FACHI,298
125,125,FACHI,2215,1064.0,1151,VA,AGADEZ,BILMA,FACHI,11.58333333,18.20111111,10304,103,1,10204.0,275,10304004,FACHI,188
126,126,AFIS,112,69.0,43,CPT,AGADEZ,IFEROUANE,IFEROUANE,8.862777778,18.76555556,10401,104,1,10104.0,284,10401011,AFIS,197
127,127,AGALAL,168,77.0,91,VA,AGADEZ,IFEROUANE,IFEROUANE,8.255833333,18.82888889,10401,104,1,10104.0,285,10401028,AGALAL 1,344
128,128,AGALAL,168,77.0,91,VA,AGADEZ,IFEROUANE,IFEROUANE,8.255833333,18.82888889,10401,104,1,10104.0,285,10401029,AGALAL 2,213
129,129,AWEY,78,41.0,37,CPT,AGADEZ,IFEROUANE,IFEROUANE,9.0825,19.13444444,10401,104,1,10104.0,304,10401017,AWEY,209
130,130,BOJNI,208,115.0,93,CPT,AGADEZ,IFEROUANE,IFEROUANE,8.23,18.49611111,10401,104,1,10104.0,309,10401026,BOJNI,233
131,131,EBOURKOUM,116,64.0,52,CPT,AGADEZ,IFEROUANE,IFEROUANE,8.609444444,18.96111111,10401,104,1,10104.0,311,10401009,EBOURKOUM,127
132,132,ETAGHASS,148,66.0,82,CPT,AGADEZ,IFEROUANE,IFEROUANE,8.389722222,19.27222222,10401,104,1,10104.0,318,10401008,ETAGHASS,191
133,133,IFIGUA,135,58.0,77,CPT,AGADEZ,IFEROUANE,IFEROUANE,8.013055556,18.52944444,10401,104,1,10104.0,325,10401025,IFIGUA,144
134,134,INAWAK,201,109.0,92,CPT,AGADEZ,IFEROUANE,IFEROUANE,8.579722222,18.66138889,10401,104,1,10104.0,330,10401020,INAWAK,85
135,135,SIDAWAT,314,165.0,149,CPT,AGADEZ,IFEROUANE,IFEROUANE,8.331666667,18.72111111,10401,104,1,10104.0,352,10401024,SIDAWAT,292
136,136,SOULOUFIET,179,82.0,97,VA,AGADEZ,IFEROUANE,IFEROUANE,8.633055556,19.09361111,10401,104,1,10104.0,353,10401006,SOULOUFIET ,221
137,137,TAGHAJIT,58,32.0,26,PE,AGADEZ,IFEROUANE,IFEROUANE,8.356944444,20.09138889,10401,104,1,10104.0,368,10401036,TAGHAJIT ,75
138,138,TAKEMOUST,78,34.0,44,CPT,AGADEZ,IFEROUANE,IFEROUANE,8.533333333,18.55777778,10401,104,1,10104.0,370,10401018,TAKEMOUST,141
139,139,TARAINAT,58,24.0,34,CPT,AGADEZ,IFEROUANE,IFEROUANE,9.029444444,18.90972222,10401,104,1,10104.0,384,10401037,TARAINAT,149
140,140,TARINKITE,96,52.0,44,CPT,AGADEZ,IFEROUANE,IFEROUANE,7.968888889,18.77611111,10401,104,1,10104.0,387,10401007,TARINKITE,144
141,141,TAZORAT,96,45.0,51,CPT,AGADEZ,IFEROUANE,IFEROUANE,8.376388889,18.71611111,10401,104,1,10104.0,391,10401021,TAZORAT,313
142,142,TCHISTAN,228,110.0,118,CPT,AGADEZ,IFEROUANE,IFEROUANE,8.1425,18.44777778,10401,104,1,10104.0,397,10401027,TCHISTAN,359
143,143,TEFESS,107,53.0,54,CPT,AGADEZ,IFEROUANE,IFEROUANE,8.4325,18.66888889,10401,104,1,10104.0,400,10401022,TEFESS,192
144,144,TEGHAWGHAW,32,15.0,17,VA,AGADEZ,IFEROUANE,IFEROUANE,8.007222222,18.72694444,10401,104,1,10104.0,401,10401031,TEGHAWGHAW,155
145,145,ZIGUILAW,100,46.0,54,CPT,AGADEZ,IFEROUANE,IFEROUANE,8.488611111,18.91388889,10401,104,1,10104.0,417,10401032,ECOLE ZIGUILAW,223
146,146,ABARAKAN,828,401.0,427,,AGADEZ,IFEROUANE,TIMIA,8.700555556,18.11416667,10402,104,1,10105.0,420,10402009,ABARAKAN,465
147,147,AJIWA,28,18.0,10,PE,AGADEZ,IFEROUANE,TIMIA,9.914166667,18.42861111,10402,104,1,10105.0,428,10402020,AJIWA,285
148,148,ASLIGH,44,19.0,25,PE,AGADEZ,IFEROUANE,TIMIA,8.951388889,18.475,10402,104,1,10105.0,441,10402012,ASLIGH,173
149,149,ASSODEI,106,52.0,54,VA,AGADEZ,IFEROUANE,TIMIA,8.589166667,18.6075,10402,104,1,10105.0,442,10402026,ASSODEI,148
150,150,GABARAT,148,75.0,73,CPT,AGADEZ,IFEROUANE,TIMIA,8.405555556,18.54111111,10402,104,1,10105.0,459,10402035,GABARAT,252
151,151,IBOUL,17,11.0,6,PE,AGADEZ,IFEROUANE,TIMIA,9.842777778,18.54527778,10402,104,1,10105.0,466,10402031,IBOUL,279
152,152,INJIRAN ET TAKARKAWAT,278,165.0,113,CPT,AGADEZ,IFEROUANE,TIMIA,8.402222222,18.32861111,10402,104,1,10105.0,472,10402027,INJIRAN ET TAKARKAWAT,165
153,153,INTADEINE,658,326.0,332,CPT,AGADEZ,IFEROUANE,TIMIA,8.167222222,18.25166667,10402,104,1,10105.0,473,10402034,INTADEINE,346
154,154,INTAYE,72,33.0,39,PE,AGADEZ,IFEROUANE,TIMIA,8.496111111,18.37416667,10402,104,1,10105.0,474,10402028,INTAYE,239
155,155,OUFEN,454,240.0,214,CPT,AGADEZ,IFEROUANE,TIMIA,8.595277778,18.24194444,10402,104,1,10105.0,485,10402024,OUFEN ,230
156,156,OUFEN,454,240.0,214,CPT,AGADEZ,IFEROUANE,TIMIA,8.595277778,18.24194444,10402,104,1,10105.0,485,10402025,OUFEN ,217
157,157,TAGALALAT,371,196.0,175,CPT,AGADEZ,IFEROUANE,TIMIA,8.754722222,18.05861111,10402,104,1,10105.0,493,10402011,TAGALALAT,272
158,158,TAGHERIST ET TAGOUGAMAT,235,119.0,116,CPT,AGADEZ,IFEROUANE,TIMIA,8.709722222,18.30805556,10402,104,1,10105.0,495,10402042,TAGHERIST ET TAGOUGAMAT ,156
159,159,TAKARKAD,246,132.0,114,CPT,AGADEZ,IFEROUANE,TIMIA,8.601111111,18.14916667,10402,104,1,10105.0,500,10402021,TAKARKAD,292
160,160,TCHIN WANIL,18,6.0,12,PE,AGADEZ,IFEROUANE,TIMIA,8.171666667,18.41888889,10402,104,1,10105.0,516,10402036,TCHIN WANIL,254
161,161,TEFARAWT,275,135.0,140,CPT,AGADEZ,IFEROUANE,TIMIA,8.543333333,18.18833333,10402,104,1,10105.0,522,10402017,TEFARAWT,379
162,162,TEFARAWT,275,135.0,140,CPT,AGADEZ,IFEROUANE,TIMIA,8.543333333,18.18833333,10402,104,1,10105.0,522,10402018,TEFARAWT,371
163,163,TEGUERT,322,168.0,154,CPT,AGADEZ,IFEROUANE,TIMIA,8.836111111,18.24861111,10402,104,1,10105.0,524,10402038,TEGUERT,194
164,164,TEKANASSAR,116,48.0,68,CPT,AGADEZ,IFEROUANE,TIMIA,8.814722222,18.17416667,10402,104,1,10105.0,525,10402040,TEKANASSAR,243
165,165,TEWAT,296,155.0,141,CPT,AGADEZ,IFEROUANE,TIMIA,8.2325,18.12638889,10402,104,1,10105.0,526,10402032,TEWAT,210
166,166,TEWAT,296,155.0,141,CPT,AGADEZ,IFEROUANE,TIMIA,8.2325,18.12638889,10402,104,1,10105.0,526,10402033,TEWAT,218
167,167,TIGHAT,75,35.0,40,CPT,AGADEZ,IFEROUANE,TIMIA,8.646944444,18.01388889,10402,104,1,10105.0,528,10402008,TIGHAT,388
168,168,TOLA,228,117.0,111,CPT,AGADEZ,IFEROUANE,TIMIA,8.893055556,18.44222222,10402,104,1,10105.0,534,10402041,TOLA,218
169,169,TOUSSOUF,355,168.0,187,CPT,AGADEZ,IFEROUANE,TIMIA,8.370555556,18.23388889,10402,104,1,10105.0,535,10402043,TOUSSOUF,247
170,170,ZOMO,205,107.0,98,CPT,AGADEZ,IFEROUANE,TIMIA,9.103611111,18.5825,10402,104,1,10105.0,537,10402023,ZOMO,309
171,171,AGAFEY,130,57.0,73,QT,AGADEZ,INGALL,INGALL,6.963055556,16.80333333,10501,105,1,10303.0,539,10501059,AGAFEY,487
172,172,SABON GARI,1405,696.0,709,QT,AGADEZ,INGALL,INGALL,6.963055556,16.80333333,10501,105,1,10303.0,551,10501037,SABON GARI,190
173,173,SABON GARI,1405,696.0,709,QT,AGADEZ,INGALL,INGALL,6.963055556,16.80333333,10501,105,1,10303.0,551,10501057,SABON GARI1,416
174,174,TOUDOU,914,445.0,469,QT,AGADEZ,INGALL,INGALL,6.963055556,16.80333333,10501,105,1,10303.0,552,10501062,TOUDOU1,351
175,175,TOUDOU,914,445.0,469,QT,AGADEZ,INGALL,INGALL,6.963055556,16.80333333,10501,105,1,10303.0,552,10501063,TOUDOU2,335
176,176,ABORAK,179,95.0,84,CPT,AGADEZ,INGALL,INGALL,7.118333333,16.83,10501,105,1,10303.0,554,10501105,ABORAK,202
177,177,ABORAK,238,128.0,110,H,AGADEZ,INGALL,INGALL,7.085277778,16.10916667,10501,105,1,10303.0,555,10501105,ABORAK,202
178,178,ABOYE,335,175.0,160,PE,AGADEZ,INGALL,INGALL,7.244444444,17.14166667,10501,105,1,10303.0,556,10501013,ABOYE,55
179,179,AKADANEY,124,68.0,56,PE,AGADEZ,INGALL,INGALL,7.278888889,15.45861111,10501,105,1,10303.0,569,10501110,AKADANEY ,96
180,180,ALAKAT,1035,553.0,482,CPT,AGADEZ,INGALL,INGALL,7.316666667,16.19833333,10501,105,1,10303.0,570,10501038,ALAKAT,372
181,181,AMATALTAL,1200,620.0,580,VA,AGADEZ,INGALL,INGALL,7.408333333,16.36555556,10501,105,1,10303.0,576,10501115,AMATALTAL1,407
182,182,AMATALTAL,1200,620.0,580,VA,AGADEZ,INGALL,INGALL,7.408333333,16.36555556,10501,105,1,10303.0,576,10501116,AMATALTAL2,430
183,183,ASSAMAKA,513,328.0,185,H,AGADEZ,INGALL,INGALL,5.834722222,19.36694444,10501,105,1,10303.0,581,10501001,ASSAMAKA,176
184,184,AZELIK,969,526.0,443,H,AGADEZ,INGALL,INGALL,7.024166667,17.64444444,10501,105,1,10303.0,587,10501003,AZELIK,284
185,185,AZEMOSSE,348,192.0,156,PE,AGADEZ,INGALL,INGALL,7.327222222,15.49333333,10501,105,1,10303.0,588,10501050,AZEMOSSE,126
186,186,BITWIL,181,94.0,87,PE,AGADEZ,INGALL,INGALL,6.461111111,17.02972222,10501,105,1,10303.0,593,10501034,BITWIL,71
187,187,DABLA,336,170.0,166,PE,AGADEZ,INGALL,INGALL,7.523333333,17.68305556,10501,105,1,10303.0,597,10501007,DABLA,139
188,188,GANI,394,190.0,204,PE,AGADEZ,INGALL,INGALL,7.273055556,16.58777778,10501,105,1,10303.0,616,10501052,GANI,357
189,189,JADRI,137,81.0,56,PE,AGADEZ,INGALL,INGALL,7.306944444,15.75166667,10501,105,1,10303.0,639,10501094,JADRI,24
190,190,KIRNACHE,155,71.0,84,CPT,AGADEZ,INGALL,INGALL,7.070555556,16.95833333,10501,105,1,10303.0,644,10501026,KIRNACHE,201
191,191,MARARABA,309,166.0,143,VA,AGADEZ,INGALL,INGALL,7.229722222,16.70916667,10501,105,1,10303.0,656,10501033,MARARABA,285
192,192,MARTABA,519,318.0,201,VA,AGADEZ,INGALL,INGALL,7.153333333,16.05583333,10501,105,1,10303.0,657,10501039,MARTABA,204
193,193,KOKARI,830,413.0,417,H,AGADEZ,INGALL,INGALL,7.444444444,16.91527778,10501,105,1,10303.0,667,10501024,KOKARI,69
194,194,TAGADAMAT,350,202.0,148,PE,AGADEZ,INGALL,INGALL,6.840277778,17.05611111,10501,105,1,10303.0,674,10501092,TAGADAMAT ,54
195,195,TAGDOUM,783,375.0,408,VA,AGADEZ,INGALL,INGALL,6.783888889,16.55944444,10501,105,1,10303.0,677,10501073,TAGDOUM1,282
196,196,TAGDOUM,783,375.0,408,VA,AGADEZ,INGALL,INGALL,6.783888889,16.55944444,10501,105,1,10303.0,677,10501120,TAGDOUM2,289
197,197,TCHILOUT,214,112.0,102,PE,AGADEZ,INGALL,INGALL,6.723888889,16.7275,10501,105,1,10303.0,692,10501081,TCHILOUT ,104
198,198,TCHIMOUMOUNENE,238,127.0,111,CPT,AGADEZ,INGALL,INGALL,7.024722222,17.06666667,10501,105,1,10303.0,694,10501069,TCHIMOUMOUNENE,336
199,199,TIGUINDE,243,113.0,130,,AGADEZ,INGALL,INGALL,7.430277778,17.06083333,10501,105,1,10303.0,723,10501016,TIGUINDE,322
200,200,TILBAY,83,46.0,37,PE,AGADEZ,INGALL,INGALL,7.515555556,17.08694444,10501,105,1,10303.0,726,10501021,TILBAY,26
201,201,TORGUIT,451,221.0,230,CPT,AGADEZ,INGALL,INGALL,7.180277778,16.93333333,10501,105,1,10303.0,727,10501097,TORGUIT,230
202,202,ABALAN,1541,803.0,738,QT,AGADEZ,TCHIROZERINE,AGADEZ,7.971944444,17.12611111,10601,106,1,10302.0,741,10601029,ABALAN,441
203,203,ABALAN,1541,803.0,738,QT,AGADEZ,TCHIROZERINE,AGADEZ,7.971944444,17.12611111,10601,106,1,10302.0,741,10601030,ABALAN,417
204,204,ABALAN,1541,803.0,738,QT,AGADEZ,TCHIROZERINE,AGADEZ,7.971944444,17.12611111,10601,106,1,10302.0,741,10601031,ABALAN,393
205,205,FOUNEMEY,1259,637.0,622,QT,AGADEZ,TCHIROZERINE,AGADEZ,8.121944444,17.09861111,10601,106,1,10302.0,749,10601067,FOUNEMEY ,316
206,206,HOUGBERY,1693,851.0,842,QT,AGADEZ,TCHIROZERINE,AGADEZ,8.130555556,17.08805556,10601,106,1,10302.0,750,10601065,HOUGBERY,303
207,207,MISRATA,10876,5637.0,5239,QT,AGADEZ,TCHIROZERINE,AGADEZ,8.095277778,16.96611111,10601,106,1,10302.0,752,10601004,MISRATA,398
208,208,MISRATA,10876,5637.0,5239,QT,AGADEZ,TCHIROZERINE,AGADEZ,8.095277778,16.96611111,10601,106,1,10302.0,752,10601005,MISRATA,399
209,209,MISRATA,10876,5637.0,5239,QT,AGADEZ,TCHIROZERINE,AGADEZ,8.095277778,16.96611111,10601,106,1,10302.0,752,10601006,MISRATA,344
210,210,MISRATA,10876,5637.0,5239,QT,AGADEZ,TCHIROZERINE,AGADEZ,8.095277778,16.96611111,10601,106,1,10302.0,752,10601008,MISRATA,395
211,211,MISRATA,10876,5637.0,5239,QT,AGADEZ,TCHIROZERINE,AGADEZ,8.095277778,16.96611111,10601,106,1,10302.0,752,10601009,MISRATA,375
212,212,MISRATA,10876,5637.0,5239,QT,AGADEZ,TCHIROZERINE,AGADEZ,8.095277778,16.96611111,10601,106,1,10302.0,752,10601010,MISRATA,248
213,213,MISRATA,10876,5637.0,5239,QT,AGADEZ,TCHIROZERINE,AGADEZ,8.095277778,16.96611111,10601,106,1,10302.0,752,10601021,MISRATA,300
214,214,OBITARA,5138,2664.0,2474,QT,AGADEZ,TCHIROZERINE,AGADEZ,8.075,16.98277778,10601,106,1,10302.0,755,10601022,OBITARA,361
215,215,OBITARA,5138,2664.0,2474,QT,AGADEZ,TCHIROZERINE,AGADEZ,8.075,16.98277778,10601,106,1,10302.0,755,10601023,OBITARA,242
216,216,OBITARA,5138,2664.0,2474,QT,AGADEZ,TCHIROZERINE,AGADEZ,8.075,16.98277778,10601,106,1,10302.0,755,10601024,OBITARA,440
217,217,OBITARA,5138,2664.0,2474,QT,AGADEZ,TCHIROZERINE,AGADEZ,8.075,16.98277778,10601,106,1,10302.0,755,10601025,OBITARA,358
218,218,OBITARA,5138,2664.0,2474,QT,AGADEZ,TCHIROZERINE,AGADEZ,8.075,16.98277778,10601,106,1,10302.0,755,10601026,OBITARA,355
219,219,OBITARA,5138,2664.0,2474,QT,AGADEZ,TCHIROZERINE,AGADEZ,8.075,16.98277778,10601,106,1,10302.0,755,10601027,OBITARA,313
220,220,OBITARA,5138,2664.0,2474,QT,AGADEZ,TCHIROZERINE,AGADEZ,8.075,16.98277778,10601,106,1,10302.0,755,10601028,OBITARA,316
221,221,OBITARA,5138,2664.0,2474,QT,AGADEZ,TCHIROZERINE,AGADEZ,8.075,16.98277778,10601,106,1,10302.0,755,10601105,OBITARA,246
222,222,SABON GARI,22332,11603.0,10729,QT,AGADEZ,TCHIROZERINE,AGADEZ,8.173055556,17.17083333,10601,106,1,10302.0,758,10601084,SABON GARI,282
223,223,SABON GARI,22332,11603.0,10729,QT,AGADEZ,TCHIROZERINE,AGADEZ,8.173055556,17.17083333,10601,106,1,10302.0,758,10601085,SABON GARI,371
224,224,SABON GARI,22332,11603.0,10729,QT,AGADEZ,TCHIROZERINE,AGADEZ,8.173055556,17.17083333,10601,106,1,10302.0,758,10601086,SABON GARI,407
225,225,SABON GARI,22332,11603.0,10729,QT,AGADEZ,TCHIROZERINE,AGADEZ,8.173055556,17.17083333,10601,106,1,10302.0,758,10601087,SABON GARI,424
226,226,SABON GARI,22332,11603.0,10729,QT,AGADEZ,TCHIROZERINE,AGADEZ,8.173055556,17.17083333,10601,106,1,10302.0,758,10601088,SABON GARI,391
227,227,SABON GARI,22332,11603.0,10729,QT,AGADEZ,TCHIROZERINE,AGADEZ,8.173055556,17.17083333,10601,106,1,10302.0,758,10601089,SABON GARI,396
228,228,SABON GARI,22332,11603.0,10729,QT,AGADEZ,TCHIROZERINE,AGADEZ,8.173055556,17.17083333,10601,106,1,10302.0,758,10601090,SABON GARI,394
229,229,SABON GARI,22332,11603.0,10729,QT,AGADEZ,TCHIROZERINE,AGADEZ,8.173055556,17.17083333,10601,106,1,10302.0,758,10601091,SABON GARI,397
230,230,SABON GARI,22332,11603.0,10729,QT,AGADEZ,TCHIROZERINE,AGADEZ,8.173055556,17.17083333,10601,106,1,10302.0,758,10601092,SABON GARI,403
231,231,SABON GARI,22332,11603.0,10729,QT,AGADEZ,TCHIROZERINE,AGADEZ,8.173055556,17.17083333,10601,106,1,10302.0,758,10601093,SABON GARI,481
232,232,SABON GARI,22332,11603.0,10729,QT,AGADEZ,TCHIROZERINE,AGADEZ,8.173055556,17.17083333,10601,106,1,10302.0,758,10601094,SABON GARI,373
233,233,SABON GARI,22332,11603.0,10729,QT,AGADEZ,TCHIROZERINE,AGADEZ,8.173055556,17.17083333,10601,106,1,10302.0,758,10601095,SABON GARI,423
234,234,SABON GARI,22332,11603.0,10729,QT,AGADEZ,TCHIROZERINE,AGADEZ,8.173055556,17.17083333,10601,106,1,10302.0,758,10601096,SABON GARI,465
235,235,SABON GARI,22332,11603.0,10729,QT,AGADEZ,TCHIROZERINE,AGADEZ,8.173055556,17.17083333,10601,106,1,10302.0,758,10601097,SABON GARI,462
236,236,SABON GARI,22332,11603.0,10729,QT,AGADEZ,TCHIROZERINE,AGADEZ,8.173055556,17.17083333,10601,106,1,10302.0,758,10601098,SABON GARI,423
237,237,SABON GARI,22332,11603.0,10729,QT,AGADEZ,TCHIROZERINE,AGADEZ,8.173055556,17.17083333,10601,106,1,10302.0,758,10601099,SABON GARI,347
238,238,SABON GARI,22332,11603.0,10729,QT,AGADEZ,TCHIROZERINE,AGADEZ,8.173055556,17.17083333,10601,106,1,10302.0,758,10601100,SABON GARI,356
239,239,SABON GARI,22332,11603.0,10729,QT,AGADEZ,TCHIROZERINE,AGADEZ,8.173055556,17.17083333,10601,106,1,10302.0,758,10601101,SABON GARI,339
240,240,TAWAYEN SARKI,8347,4228.0,4119,QT,AGADEZ,TCHIROZERINE,AGADEZ,8.1275,17.12194444,10601,106,1,10302.0,760,10601011,TAWAYEN SARKI,400
241,241,TAWAYEN SARKI,8347,4228.0,4119,QT,AGADEZ,TCHIROZERINE,AGADEZ,8.1275,17.12194444,10601,106,1,10302.0,760,10601012,TAWAYEN SARKI,404
242,242,TAWAYEN SARKI,8347,4228.0,4119,QT,AGADEZ,TCHIROZERINE,AGADEZ,8.1275,17.12194444,10601,106,1,10302.0,760,10601032,TAWAYEN SARKI,388
243,243,TOUDOU,5686,2796.0,2890,QT,AGADEZ,TCHIROZERINE,AGADEZ,7.983333333,17.00138889,10601,106,1,10302.0,761,10601037,TOUDOU,489
244,244,TOUDOU,5686,2796.0,2890,QT,AGADEZ,TCHIROZERINE,AGADEZ,7.983333333,17.00138889,10601,106,1,10302.0,761,10601038,TOUDOU,437
245,245,TOUDOU,5686,2796.0,2890,QT,AGADEZ,TCHIROZERINE,AGADEZ,7.983333333,17.00138889,10601,106,1,10302.0,761,10601039,TOUDOU,442
246,246,TOUDOU,5686,2796.0,2890,QT,AGADEZ,TCHIROZERINE,AGADEZ,7.983333333,17.00138889,10601,106,1,10302.0,761,10601040,TOUDOU,431
247,247,TOUDOU,5686,2796.0,2890,QT,AGADEZ,TCHIROZERINE,AGADEZ,7.983333333,17.00138889,10601,106,1,10302.0,761,10601041,TOUDOU,306
248,248,TOUDOU,5686,2796.0,2890,QT,AGADEZ,TCHIROZERINE,AGADEZ,7.983333333,17.00138889,10601,106,1,10302.0,761,10601106,TOUDOU,250
249,249,DARI,628,319.0,309,VA,AGADEZ,TCHIROZERINE,AGADEZ,8.015555556,17.08138889,10601,106,1,10302.0,767,10601072,DARI,303
250,250,IKIRKIWI,523,264.0,259,H,AGADEZ,TCHIROZERINE,AGADEZ,8.164166667,17.00805556,10601,106,1,10302.0,768,10601104,IKIRKIWI,70
251,251,AKASSABA,391,203.0,188,VA,AGADEZ,TCHIROZERINE,DABAGA,8.425833333,17.35444444,10602,106,1,10304.0,784,10602008,AKASSABA,343
252,252,AMATASSA,253,132.0,121,H,AGADEZ,TCHIROZERINE,DABAGA,8.437222222,17.83833333,10602,106,1,10304.0,787,10602036,AMATASSA,130
253,253,ASSA,277,155.0,122,H,AGADEZ,TCHIROZERINE,DABAGA,8.153611111,17.44277778,10602,106,1,10304.0,790,10602048,ASSA,190
254,254,ASSADA,325,159.0,166,VA,AGADEZ,TCHIROZERINE,DABAGA,8.509444444,17.9325,10602,106,1,10304.0,791,10602040,ASSADA,335
255,255,ASSANAGA,653,298.0,355,VA,AGADEZ,TCHIROZERINE,DABAGA,8.066666667,17.39416667,10602,106,1,10304.0,792,10602002,ASSANAGA,296
256,256,EGHARGHAR EST,223,112.0,111,H,AGADEZ,TCHIROZERINE,DABAGA,8.5575,17.87916667,10602,106,1,10304.0,808,10602041,EGHARGHAR EST,93
257,257,EGHARGHAR OUEST,200,89.0,111,H,AGADEZ,TCHIROZERINE,DABAGA,8.435277778,18.04111111,10602,106,1,10304.0,809,10602042,EGHARGHAR OUEST,136
258,258,GUIRMAT,267,144.0,123,CPT,AGADEZ,TCHIROZERINE,DABAGA,8.4825,17.70388889,10602,106,1,10304.0,817,10602046,GUIRMAT,126
259,259,INWAZEIDI,392,200.0,192,VA,AGADEZ,TCHIROZERINE,DABAGA,8.2225,17.27694444,10602,106,1,10304.0,827,10602011,INWAZEIDI,151
260,260,OUMOUROUDOU,124,72.0,52,CPT,AGADEZ,TCHIROZERINE,DABAGA,8.230833333,17.85722222,10602,106,1,10304.0,844,10602051,OUMOUROUDOU,81
261,261,TAMANZARAT,90,46.0,44,PE,AGADEZ,TCHIROZERINE,DABAGA,8.466111111,17.89361111,10602,106,1,10304.0,853,10602044,TAMANZARAT,154
262,262,TASSALAM SALAM,1081,500.0,581,,AGADEZ,TCHIROZERINE,DABAGA,8.161111111,17.45777778,10602,106,1,10304.0,855,10602013,TASSALAM-SALAM 1,246
263,263,TASSALAM SALAM,1081,500.0,581,,AGADEZ,TCHIROZERINE,DABAGA,8.161111111,17.45777778,10602,106,1,10304.0,855,10602014,TASSALAM-SALAM 2,271
264,264,TCHIGROURAM,301,148.0,153,CPT,AGADEZ,TCHIROZERINE,DABAGA,8.436111111,17.70777778,10602,106,1,10304.0,859,10602034,TCHIGROURAM,200
265,265,TCHISSIK,340,187.0,153,CPT,AGADEZ,TCHIROZERINE,DABAGA,8.488333333,17.93444444,10602,106,1,10304.0,863,10602026,TCHISSIK,182
266,266,TOUMGA,577,287.0,290,VA,AGADEZ,TCHIROZERINE,DABAGA,8.111666667,17.28805556,10602,106,1,10304.0,869,10602001,TOUMGA,480
267,267,ABARDAK,1254,727.0,527,VA,AGADEZ,TCHIROZERINE,TABELOT,8.877222222,17.735,10603,106,1,10305.0,871,10603046,ABARDAK 1 ,323
268,268,ABARDAK,1254,727.0,527,VA,AGADEZ,TCHIROZERINE,TABELOT,8.877222222,17.735,10603,106,1,10305.0,871,10603047,ABARDAK 2 ,318
269,269,ALJOUMA,259,135.0,124,VA,AGADEZ,TCHIROZERINE,TABELOT,9.055555556,17.5025,10603,106,1,10305.0,878,10603017,ALJOUMA,255
270,270,ANOUN ALHER,367,203.0,164,PE,AGADEZ,TCHIROZERINE,TABELOT,9.2875,17.61611111,10603,106,1,10305.0,885,10603067,ANOUN ALHER,183
271,271,ATKAKI,367,183.0,184,VA,AGADEZ,TCHIROZERINE,TABELOT,8.812777778,17.86722222,10603,106,1,10305.0,890,10603029,ATKAKI 1,160
272,272,AZANGARAN,194,90.0,104,CPT,AGADEZ,TCHIROZERINE,TABELOT,8.925555556,17.40861111,10603,106,1,10305.0,899,10603016,AZANGARAN,91
273,273,BANAGA,352,167.0,185,VA,AGADEZ,TCHIROZERINE,TABELOT,8.699444444,17.55222222,10603,106,1,10305.0,901,10603052,BANAGA,203
274,274,BARGOT,385,202.0,183,VA,AGADEZ,TCHIROZERINE,TABELOT,9.309166667,17.63388889,10603,106,1,10305.0,903,10603021,BARGOT,222
275,275,BEITAL,369,180.0,189,PE,AGADEZ,TCHIROZERINE,TABELOT,9.043333333,16.31805556,10603,106,1,10305.0,904,10603024,BEITAL,179
276,276,DOGAM,450,215.0,235,VA,AGADEZ,TCHIROZERINE,TABELOT,8.691111111,17.84222222,10603,106,1,10305.0,911,10603039,DOGAM,222
277,277,EBEY,85,51.0,34,VA,AGADEZ,TCHIROZERINE,TABELOT,9.197222222,17.53277778,10603,106,1,10305.0,914,10603015,EBEY,277
278,278,EMALAWLE,455,249.0,206,VA,AGADEZ,TCHIROZERINE,TABELOT,8.785277778,17.73555556,10603,106,1,10305.0,919,10603026,EMALAWLE,215
279,279,ERAWAT,358,182.0,176,VA,AGADEZ,TCHIROZERINE,TABELOT,8.583333333,17.52305556,10603,106,1,10305.0,923,10603049,ERAWAT,160
280,280,TABEWA,417,207.0,210,VA,AGADEZ,TCHIROZERINE,TABELOT,8.679166667,17.84916667,10603,106,1,10305.0,963,10603038,TABEWA,193
281,281,TAGALAT,286,135.0,151,VA,AGADEZ,TCHIROZERINE,TABELOT,9.005277778,17.7875,10603,106,1,10305.0,967,10603071,TAGALAT,177
282,282,TALAT,1303,683.0,620,VA,AGADEZ,TCHIROZERINE,TABELOT,8.784444444,17.76833333,10603,106,1,10305.0,970,10603044,TALAT 1 ,295
283,283,TALAT,1303,683.0,620,VA,AGADEZ,TCHIROZERINE,TABELOT,8.784444444,17.76833333,10603,106,1,10305.0,970,10603045,TALAT 2,259
284,284,TALAT NAGHIWAN,265,127.0,138,VA,AGADEZ,TCHIROZERINE,TABELOT,8.904444444,17.90083333,10603,106,1,10305.0,975,10603037,TALAT NAGHIWAN,289
285,285,TASSOUMA,425,218.0,207,VA,AGADEZ,TCHIROZERINE,TABELOT,8.742222222,17.50361111,10603,106,1,10305.0,991,10603048,TASSOUMA,181
286,286,TCHIRO CENTRE,604,318.0,286,QT,AGADEZ,TCHIROZERINE,TCHIROZERINE,7.991388889,17.42833333,10604,106,1,10306.0,1018,10604065,TCHIRO-CENTRE,394
287,287,CARRE SUD,1197,614.0,583,QT,AGADEZ,TCHIROZERINE,TCHIROZERINE,8.0625,17.50166667,10604,106,1,10306.0,1019,10604067,CARRE-SUD,404
288,288,CITE SONICHAR,2094,1051.0,1043,QT,AGADEZ,TCHIROZERINE,TCHIROZERINE,7.951111111,17.5225,10604,106,1,10306.0,1020,10604070,CITE SONICHAR 1,488
289,289,CITE SONICHAR,2094,1051.0,1043,QT,AGADEZ,TCHIROZERINE,TCHIROZERINE,7.951111111,17.5225,10604,106,1,10306.0,1020,10604071,CITE SONICHAR 2,490
290,290,ABARO,231,128.0,103,CPT,AGADEZ,TCHIROZERINE,TCHIROZERINE,7.904166667,17.46555556,10604,106,1,10306.0,1021,10604033,ABARO,300
291,291,ABARO,231,128.0,103,CPT,AGADEZ,TCHIROZERINE,TCHIROZERINE,7.904166667,17.46555556,10604,106,1,10306.0,1021,10604038,ABARO2,237
292,292,ARATAN,496,250.0,246,CPT,AGADEZ,TCHIROZERINE,TCHIROZERINE,8.413611111,17.16138889,10604,106,1,10306.0,1029,10604129,ARATAN,182
293,293,ATTRI,631,302.0,329,VA,AGADEZ,TCHIROZERINE,TCHIROZERINE,8.361944444,17.08222222,10604,106,1,10306.0,1033,10604121,ATTRI 1,496
294,294,ATTRI,631,302.0,329,VA,AGADEZ,TCHIROZERINE,TCHIROZERINE,8.361944444,17.08222222,10604,106,1,10306.0,1033,10604122,ATTRI 2,125
295,295,BATAL,236,113.0,123,CPT,AGADEZ,TCHIROZERINE,TCHIROZERINE,7.991944444,17.39861111,10604,106,1,10306.0,1040,10604055,BATAL,103
296,296,BAHOULDI,31,17.0,14,CPT,AGADEZ,TCHIROZERINE,TCHIROZERINE,8.140833333,17.63416667,10604,106,1,10306.0,1041,10604022,BAHOULDI,100
297,297,BOUDARI,367,203.0,164,VA,AGADEZ,TCHIROZERINE,TCHIROZERINE,8.240833333,17.53611111,10604,106,1,10306.0,1042,10604030,BOUDARI,156
298,298,EGANDAWEL,1916,957.0,959,H,AGADEZ,TCHIROZERINE,TCHIROZERINE,8.252222222,17.66305556,10604,106,1,10306.0,1045,10604026,EGANDAWEL1,376
299,299,EGANDAWEL,1916,957.0,959,H,AGADEZ,TCHIROZERINE,TCHIROZERINE,8.252222222,17.66305556,10604,106,1,10306.0,1045,10604027,EGANDAWEL2,343
300,300,INGUEFANE,101,49.0,52,PE,AGADEZ,TCHIROZERINE,TCHIROZERINE,7.615277778,17.82555556,10604,106,1,10306.0,1064,10604002,INGUEFANE,345
301,301,INOLAMANE,146,81.0,65,CPT,AGADEZ,TCHIROZERINE,TCHIROZERINE,7.691944444,17.82111111,10604,106,1,10306.0,1067,10604019,INOLAMANE,214
302,302,INTAMADE,283,148.0,135,CPT,AGADEZ,TCHIROZERINE,TCHIROZERINE,8.240833333,17.9075,10604,106,1,10306.0,1071,10604066,INTAMADE,220
303,303,INTAMAT,1143,554.0,589,CPT,AGADEZ,TCHIROZERINE,TCHIROZERINE,8.481388889,16.96222222,10604,106,1,10306.0,1072,10604014,INTAMAT,81
304,304,INTAMAT,1143,554.0,589,CPT,AGADEZ,TCHIROZERINE,TCHIROZERINE,8.481388889,16.96222222,10604,106,1,10306.0,1072,10604127,INTAMAT 1,233
305,305,INTAMAT,1143,554.0,589,CPT,AGADEZ,TCHIROZERINE,TCHIROZERINE,8.481388889,16.96222222,10604,106,1,10306.0,1072,10604128,INTAMAT 2,297
306,306,INTAMAT,96,54.0,42,CPT,AGADEZ,TCHIROZERINE,TCHIROZERINE,7.864166667,17.27333333,10604,106,1,10306.0,1073,10604014,INTAMAT,81
307,307,INTAMAT,96,54.0,42,CPT,AGADEZ,TCHIROZERINE,TCHIROZERINE,7.864166667,17.27333333,10604,106,1,10306.0,1073,10604127,INTAMAT 1,233
308,308,INTAMAT,96,54.0,42,CPT,AGADEZ,TCHIROZERINE,TCHIROZERINE,7.864166667,17.27333333,10604,106,1,10306.0,1073,10604128,INTAMAT 2,297
309,309,TCHINTABORAK/BARDAK,430,227.0,203,H,AGADEZ,TCHIROZERINE,TCHIROZERINE,8.295555556,17.23444444,10604,106,1,10306.0,1074,10604125,TCHINTABORAK-BARDAK,189
310,310,ISSAKANANE,210,115.0,95,VA,AGADEZ,TCHIROZERINE,TCHIROZERINE,7.771944444,17.76166667,10604,106,1,10306.0,1077,10604021,ISSAKANANE,20
311,311,KOURBOUBOU,1712,873.0,839,CPT,AGADEZ,TCHIROZERINE,TCHIROZERINE,8.047222222,17.12194444,10604,106,1,10306.0,1084,10604102,KOURBOUBOU 1,260
312,312,KOURBOUBOU,1712,873.0,839,CPT,AGADEZ,TCHIROZERINE,TCHIROZERINE,8.047222222,17.12194444,10604,106,1,10306.0,1084,10604103,KOURBOUBOU 2,238
313,313,KOURBOUBOU,1712,873.0,839,CPT,AGADEZ,TCHIROZERINE,TCHIROZERINE,8.047222222,17.12194444,10604,106,1,10306.0,1084,10604104,KOURBOUBOU 3,301
314,314,MARRADI,591,302.0,289,CPT,AGADEZ,TCHIROZERINE,TCHIROZERINE,8.359444444,17.10583333,10604,106,1,10306.0,1088,10604139,MARRADI,156
315,315,MIZENE,483,270.0,213,CPT,AGADEZ,TCHIROZERINE,TCHIROZERINE,8.003611111,18.03138889,10604,106,1,10306.0,1089,10604007,MIZENE,313
316,316,SAKAFAT,860,450.0,410,H,AGADEZ,TCHIROZERINE,TCHIROZERINE,8.017777778,17.87444444,10604,106,1,10306.0,1093,10604036,SAKAFAT1,290
317,317,SAKAFAT,860,450.0,410,H,AGADEZ,TCHIROZERINE,TCHIROZERINE,8.017777778,17.87444444,10604,106,1,10306.0,1093,10604037,SAKAFAT2,207
318,318,SIKERET,326,174.0,152,CPT,AGADEZ,TCHIROZERINE,TCHIROZERINE,7.712777778,17.92166667,10604,106,1,10306.0,1094,10604003,SIKERET,159
319,319,TABANKORTE,358,177.0,181,CPT,AGADEZ,TCHIROZERINE,TCHIROZERINE,7.686666667,17.21027778,10604,106,1,10306.0,1095,10604086,TABANKORTE,80
320,320,TACHA,277,150.0,127,CPT,AGADEZ,TCHIROZERINE,TCHIROZERINE,8.020555556,17.80583333,10604,106,1,10306.0,1096,10604020,TACHA,238
321,321,TAGAZA,190,159.0,31,CPT,AGADEZ,TCHIROZERINE,TCHIROZERINE,7.787777778,17.94888889,10604,106,1,10306.0,1099,10604004,TAGAZA,458
322,322,TAGUIDIFA,131,74.0,57,CPT,AGADEZ,TCHIROZERINE,TCHIROZERINE,8.286666667,17.97111111,10604,106,1,10306.0,1102,10604009,TAGUIDIFA,162
323,323,TALKA,408,192.0,216,CPT,AGADEZ,TCHIROZERINE,TCHIROZERINE,7.7375,17.68111111,10604,106,1,10306.0,1106,10604005,TALKA,327
324,324,TAMILT,381,205.0,176,CPT,AGADEZ,TCHIROZERINE,TCHIROZERINE,8.590833333,17.16888889,10604,106,1,10306.0,1107,10604130,TAMILT,266
325,325,TASSAMAKAT,253,137.0,116,CPT,AGADEZ,TCHIROZERINE,TCHIROZERINE,8.427777778,17.31,10604,106,1,10306.0,1109,10604135,TASSAMAKAT,94
326,326,TAZAMAK,449,257.0,192,H,AGADEZ,TCHIROZERINE,TCHIROZERINE,8.651111111,17.25083333,10604,106,1,10306.0,1112,10604137,TAZAMAK,93
327,327,TCHINTEBIZGUINE,292,151.0,141,CPT,AGADEZ,TCHIROZERINE,TCHIROZERINE,8.079444444,17.25972222,10604,106,1,10306.0,1114,10604090,TCHINTEBIZGUINE,128
328,328,TEDENE,452,227.0,225,CPT,AGADEZ,TCHIROZERINE,TCHIROZERINE,8.360277778,17.64611111,10604,106,1,10306.0,1116,10604031,TEDENE,162
329,329,TIDENE,384,212.0,172,VA,AGADEZ,TCHIROZERINE,TCHIROZERINE,8.025833333,17.73694444,10604,106,1,10306.0,1122,10604042,TIDENE,267
330,330,TOULOUGH,130,61.0,69,CPT,AGADEZ,TCHIROZERINE,TCHIROZERINE,7.7725,17.13361111,10604,106,1,10306.0,1130,10604079,TOULOUGH,161
331,331,WARATAHATT,332,192.0,140,VA,AGADEZ,TCHIROZERINE,TCHIROZERINE,8.113055556,17.76777778,10604,106,1,10306.0,1134,10604041,WARATAHATT,235
332,332,BOSSO,4767,2482.0,2285,VA,DIFFA,BOSSO,BOSSO,13.48777778,13.95472222,20101,201,2,20101.0,1136,20101001,BOSSO 1,448
333,333,BOSSO,4767,2482.0,2285,VA,DIFFA,BOSSO,BOSSO,13.48777778,13.95472222,20101,201,2,20101.0,1136,20101002,BOSSO 2,403
334,334,BOSSO,4767,2482.0,2285,VA,DIFFA,BOSSO,BOSSO,13.48777778,13.95472222,20101,201,2,20101.0,1136,20101003,BOSSO 3,389
335,335,BOSSO,4767,2482.0,2285,VA,DIFFA,BOSSO,BOSSO,13.48777778,13.95472222,20101,201,2,20101.0,1136,20101004,BOSSO 4,447
336,336,BOSSO,4767,2482.0,2285,VA,DIFFA,BOSSO,BOSSO,13.48777778,13.95472222,20101,201,2,20101.0,1136,20101005,BOSSO 5,297
337,337,BOSSO,4767,2482.0,2285,VA,DIFFA,BOSSO,BOSSO,13.48777778,13.95472222,20101,201,2,20101.0,1136,20101006,BOSSO 6,443
338,338,BASSA,1217,630.0,587,VA,DIFFA,BOSSO,BOSSO,13.14333333,13.56,20101,201,2,20101.0,1158,20101055,BASSA,280
339,339,DJABALLAM,519,256.0,263,VA,DIFFA,BOSSO,BOSSO,13.20555556,13.67361111,20101,201,2,20101.0,1177,20101038,DJABALLAM,357
340,340,KARAMGA,1039,556.0,483,H,DIFFA,BOSSO,BOSSO,13.60111111,14.04055556,20101,201,2,20101.0,1205,20101044,KARAMGA,153
341,341,KIESSA BASSA,634,332.0,302,H,DIFFA,BOSSO,BOSSO,13.20638889,13.71111111,20101,201,2,20101.0,1210,20101034,KIESSA BASSA,331
342,342,KOUKOUDOU,1337,686.0,651,VA,DIFFA,BOSSO,BOSSO,13.10416667,13.73388889,20101,201,2,20101.0,1226,20101056,KOUKOUDOU,447
343,343,MAMOURI,451,271.0,180,VA,DIFFA,BOSSO,BOSSO,13.37388889,13.83555556,20101,201,2,20101.0,1236,20101039,MAMOURI,292
344,344,RIARI,382,173.0,209,VA,DIFFA,BOSSO,BOSSO,13.06305556,13.73888889,20101,201,2,20101.0,1253,20101033,RIARI,270
345,345,RILLE,288,151.0,137,VA,DIFFA,BOSSO,BOSSO,13.18777778,13.54694444,20101,201,2,20101.0,1254,20101068,RILLE,299
346,346,RILLE,288,151.0,137,VA,DIFFA,BOSSO,BOSSO,13.18777778,13.54694444,20101,201,2,20101.0,1254,20101069,RILLE 2,230
347,347,TCHASSALA,633,289.0,344,VA,DIFFA,BOSSO,BOSSO,13.14805556,13.69388889,20101,201,2,20101.0,1256,20101060,TCHASSALA,369
348,348,KAKARWA,421,208.0,213,PE,DIFFA,BOSSO,TOUMOUR,13.19527778,13.93527778,20102,201,2,20105.0,1284,20102013,KAKARWA,140
349,349,KAOURE,609,311.0,298,PE,DIFFA,BOSSO,TOUMOUR,13.26638889,13.5925,20102,201,2,20105.0,1285,20102007,KAOURE,360
350,350,TOUMOUR,6742,3487.0,3255,VA,DIFFA,BOSSO,TOUMOUR,13.2325,13.67333333,20102,201,2,20105.0,1288,20102001,TOUMOUR I,419
351,351,TOUMOUR,6742,3487.0,3255,VA,DIFFA,BOSSO,TOUMOUR,13.2325,13.67333333,20102,201,2,20105.0,1288,20102005,TOUMOUR V,410
352,352,TOUMOUR,6742,3487.0,3255,VA,DIFFA,BOSSO,TOUMOUR,13.2325,13.67333333,20102,201,2,20105.0,1288,20102033,TOUMOUR 6,415
353,353,ABBA KOURADI,391,198.0,193,VA,DIFFA,DIFFA,CHETIMARI,12.59361111,13.53333333,20201,202,2,20102.0,1290,20201068,ABBA KOURADI,206
354,354,ADJI KOYARI KIARI,751,395.0,356,VA,DIFFA,DIFFA,CHETIMARI,12.5575,13.61083333,20201,202,2,20102.0,1293,20201070,ADJI KOYARI KIARI,443
355,355,ADJIRI,936,470.0,466,VA,DIFFA,DIFFA,CHETIMARI,12.7775,13.42138889,20201,202,2,20102.0,1294,20201023,ADJIRI 1,299
356,356,ADJIRI,936,470.0,466,VA,DIFFA,DIFFA,CHETIMARI,12.7775,13.42138889,20201,202,2,20102.0,1294,20201024,ADJIRI 2,187
357,357,AMSAMIRI,403,190.0,213,VA,DIFFA,DIFFA,CHETIMARI,12.43083333,13.43861111,20201,202,2,20102.0,1301,20201051,AMSAMIRI,221
358,358,MAMARI DINA,74,42.0,32,VA,DIFFA,DIFFA,CHETIMARI,12.64555556,13.62611111,20201,202,2,20102.0,1316,20201071,MAMARI DINA,247
359,359,CHETIMA SIDIRI,338,181.0,157,VA,DIFFA,DIFFA,CHETIMARI,12.63722222,13.25888889,20201,202,2,20102.0,1322,20201012,CHETIMA SIDIRI,263
360,360,CHETIMARI,1518,791.0,727,VA,DIFFA,DIFFA,CHETIMARI,12.51694444,13.19527778,20201,202,2,20102.0,1323,20201008,CHETIMARI 1,374
361,361,CHETIMARI,1518,791.0,727,VA,DIFFA,DIFFA,CHETIMARI,12.51694444,13.19527778,20201,202,2,20102.0,1323,20201009,CHETIMARI 2,328
362,362,CHOUWARI,753,396.0,357,H,DIFFA,DIFFA,CHETIMARI,12.52527778,13.26277778,20201,202,2,20102.0,1324,20201042,CHOUWARI,171
363,363,DABAGO KADEY,1810,899.0,911,VA,DIFFA,DIFFA,CHETIMARI,12.66722222,13.32777778,20201,202,2,20102.0,1325,20201032,DABAGO KADEY,400
364,364,DAISSA MANGA,635,307.0,328,VA,DIFFA,DIFFA,CHETIMARI,12.52111111,13.32416667,20201,202,2,20102.0,1326,20201014,DAISSA MANGA,276
365,365,DAMARAM,254,128.0,126,VA,DIFFA,DIFFA,CHETIMARI,12.66083333,13.17694444,20201,202,2,20102.0,1328,20201044,DAMARAM,214
366,366,DASSA,352,180.0,172,VA,DIFFA,DIFFA,CHETIMARI,12.66888889,13.3825,20201,202,2,20102.0,1329,20201063,DASSA,348
367,367,DOURO,849,408.0,441,VA,DIFFA,DIFFA,CHETIMARI,12.63138889,13.17611111,20201,202,2,20102.0,1339,20201038,DOURO,330
368,368,FOGUE MALOUMDI,261,139.0,122,VA,DIFFA,DIFFA,CHETIMARI,12.66666667,13.41861111,20201,202,2,20102.0,1341,20201036,FOGUE MALOUMDI,142
369,369,GONIDI,579,270.0,309,VA,DIFFA,DIFFA,CHETIMARI,12.44138889,13.25666667,20201,202,2,20102.0,1344,20201049,GONIDI,234
370,370,GREMADI,540,262.0,278,VA,DIFFA,DIFFA,CHETIMARI,12.53805556,13.28027778,20201,202,2,20102.0,1351,20201048,GREMADI,338
371,371,ISSARI,1513,796.0,717,VA,DIFFA,DIFFA,CHETIMARI,12.34361111,13.88361111,20201,202,2,20102.0,1356,20201088,ISSARI 1,347
372,372,ISSARI,1513,796.0,717,VA,DIFFA,DIFFA,CHETIMARI,12.34361111,13.88361111,20201,202,2,20102.0,1356,20201089,ISSARI 2,354
373,373,ISSOUFOURI,459,239.0,220,VA,DIFFA,DIFFA,CHETIMARI,12.59222222,13.31638889,20201,202,2,20102.0,1357,20201053,ISSOUFOURI,261
374,374,KARGAMARI,587,308.0,279,VA,DIFFA,DIFFA,CHETIMARI,12.52722222,13.38166667,20201,202,2,20102.0,1363,20201037,KARGAMARI,409
375,375,KARGAMARI,634,310.0,324,VA,DIFFA,DIFFA,CHETIMARI,12.52722222,13.38166667,20201,202,2,20102.0,1369,20201037,KARGAMARI,409
376,376,KALGOUNAM,674,356.0,318,VA,DIFFA,DIFFA,CHETIMARI,12.47,13.25,20201,202,2,20102.0,1366,20201052,KALGOUNAM,313
377,377,KAWIYA LAWAN BACHIR,132,74.0,58,VA,DIFFA,DIFFA,CHETIMARI,12.46361111,13.17111111,20201,202,2,20102.0,1377,20201005,KAWIYA LAWAN BACHIR,145
378,378,KOUNOUMARI,124,63.0,61,H,DIFFA,DIFFA,CHETIMARI,12.44083333,13.88944444,20201,202,2,20102.0,1394,20201086,KOUNOUMARI,134
379,379,KOUROU SALERI,262,137.0,125,VA,DIFFA,DIFFA,CHETIMARI,12.67111111,13.38833333,20201,202,2,20102.0,1395,20201094,KOUROU SALERI,262
380,380,LOGO,804,390.0,414,VA,DIFFA,DIFFA,CHETIMARI,12.79055556,13.43083333,20201,202,2,20102.0,1399,20201022,LOGO,243
381,381,LOUMBOURAM,744,326.0,418,VA,DIFFA,DIFFA,CHETIMARI,12.63583333,13.43277778,20201,202,2,20102.0,1400,20201029,LOUMBOURAM 1,300
382,382,LOUMBOURAM,744,326.0,418,VA,DIFFA,DIFFA,CHETIMARI,12.63583333,13.43277778,20201,202,2,20102.0,1400,20201030,LOUMBOURAM 2,300
383,383,MADIAN,314,177.0,137,H,DIFFA,DIFFA,CHETIMARI,12.5775,13.29055556,20201,202,2,20102.0,1403,20201041,MADIAN,237
384,384,MAISSIRODI,924,459.0,465,VA,DIFFA,DIFFA,CHETIMARI,12.38722222,13.44638889,20201,202,2,20102.0,1407,20201061,MAISSIRODI,419
385,385,MALAM BOUKARDI,736,355.0,381,VA,DIFFA,DIFFA,CHETIMARI,12.49916667,13.53,20201,202,2,20102.0,1413,20201065,MALAM BOUKARDI 1,377
386,386,MALAM BOUKARDI,736,355.0,381,VA,DIFFA,DIFFA,CHETIMARI,12.49916667,13.53,20201,202,2,20102.0,1413,20201066,MALAM BOUKARDI 2,178
387,387,MALAM MINARI,468,243.0,225,VA,DIFFA,DIFFA,CHETIMARI,12.36361111,13.49972222,20201,202,2,20102.0,1417,20201097,MALAM MINARI,172
388,388,MAYA,169,90.0,79,H,DIFFA,DIFFA,CHETIMARI,12.67805556,13.41722222,20201,202,2,20102.0,1421,20201021,MAYA,236
389,389,MEDILARAM,244,131.0,113,VA,DIFFA,DIFFA,CHETIMARI,12.47472222,13.83916667,20201,202,2,20102.0,1422,20201085,MEDILARAM ,346
390,390,MESSA,254,134.0,120,VA,DIFFA,DIFFA,CHETIMARI,12.48388889,13.37277778,20201,202,2,20102.0,1424,20201057,MESSA,171
391,391,MOURIMADI,499,231.0,268,VA,DIFFA,DIFFA,CHETIMARI,12.41166667,13.29277778,20201,202,2,20102.0,1428,20201006,MOURIMADI,267
392,392,N'DAOURODI,368,174.0,194,H,DIFFA,DIFFA,CHETIMARI,12.57972222,13.23416667,20201,202,2,20102.0,1429,20201004,N'DAOURODI,325
393,393,ROUDA,344,164.0,180,VA,DIFFA,DIFFA,CHETIMARI,12.6925,13.365,20201,202,2,20102.0,1441,20201028,ROUDA,288
394,394,TCHIGAMARI,744,382.0,362,VA,DIFFA,DIFFA,CHETIMARI,12.50555556,13.61361111,20201,202,2,20102.0,1446,20201080,TCHIGAMARI,443
395,395,TOURBAN GUIDA,1943,1003.0,940,VA,DIFFA,DIFFA,CHETIMARI,12.68861111,13.39888889,20201,202,2,20102.0,1447,20201033,TOURBAN GUIDA 1,391
396,396,TOURBAN GUIDA,1943,1003.0,940,VA,DIFFA,DIFFA,CHETIMARI,12.68861111,13.39888889,20201,202,2,20102.0,1447,20201034,TOURBAN GUIDA 2,403
397,397,ZARWARAM,2997,1540.0,1457,VA,DIFFA,DIFFA,CHETIMARI,12.58222222,13.16638889,20201,202,2,20102.0,1452,20201018,ZARWARAM 1,397
398,398,ZARWARAM,2997,1540.0,1457,VA,DIFFA,DIFFA,CHETIMARI,12.58222222,13.16638889,20201,202,2,20102.0,1452,20201019,ZARWARAM 2,395
399,399,ZARWARAM,2997,1540.0,1457,VA,DIFFA,DIFFA,CHETIMARI,12.58222222,13.16638889,20201,202,2,20102.0,1452,20201020,ZARWARAM 3,384
400,400,DIFFA KOURA,8418,4385.0,4033,QT,DIFFA,DIFFA,DIFFA,12.74694444,13.50222222,20202,202,2,20103.0,1456,20202020,DIFFA KOURA I,446
401,401,DIFFA KOURA,8418,4385.0,4033,QT,DIFFA,DIFFA,DIFFA,12.74694444,13.50222222,20202,202,2,20103.0,1456,20202024,DIFFA KOURA V,450
402,402,BAGARA,2135,1068.0,1067,VA,DIFFA,DIFFA,DIFFA,12.75138889,13.4125,20202,202,2,20103.0,1465,20202003,BAGARA I,246
403,403,KANGARWA,95,53.0,42,VA,DIFFA,DIFFA,DIFFA,12.86361111,13.45416667,20202,202,2,20103.0,1477,20202034,KANGARWA,131
404,404,KAYOWA,1091,547.0,544,VA,DIFFA,DIFFA,DIFFA,12.69638889,13.41583333,20202,202,2,20103.0,1480,20202035,KAYOWA I ,244
405,405,KOURSARI,342,184.0,158,VA,DIFFA,DIFFA,DIFFA,12.78972222,13.49833333,20202,202,2,20103.0,1482,20202038,KOURSARI,260
406,406,LADA,3310,1682.0,1628,VA,DIFFA,DIFFA,DIFFA,12.82527778,13.31722222,20202,202,2,20103.0,1483,20202039,LADA I,249
407,407,MADOU KAOURI,533,273.0,260,H,DIFFA,DIFFA,DIFFA,12.73138889,13.36555556,20202,202,2,20103.0,1487,20202064,MADOU KAOURI,271
408,408,MAMARI,1074,589.0,485,VA,DIFFA,DIFFA,DIFFA,12.65027778,13.60833333,20202,202,2,20103.0,1489,20202042,MAMARI,340
409,409,BLABRINE,242,128.0,114,H,DIFFA,DIFFA,GUESKEROU,12.90777778,13.54222222,20203,202,2,20104.0,1516,20203059,BLABRINE,425
410,410,BLABRINE,114,49.0,65,H,DIFFA,DIFFA,GUESKEROU,12.84361111,13.61055556,20203,202,2,20104.0,1517,20203059,BLABRINE,425
411,411,DEWA II,580,319.0,261,VA,DIFFA,DIFFA,GUESKEROU,12.92333333,13.57833333,20203,202,2,20104.0,1528,20203034,DEWA II,411
412,412,GARIN DOGO,1016,510.0,506,H,DIFFA,DIFFA,GUESKEROU,12.82611111,13.605,20203,202,2,20104.0,1539,20203060,GARIN DOGO,254
413,413,GUESKEROU,2414,1247.0,1167,VA,DIFFA,DIFFA,GUESKEROU,12.99194444,13.52833333,20203,202,2,20104.0,1544,20203013,GUESKEROU,375
414,414,GUESKEROU,2414,1247.0,1167,VA,DIFFA,DIFFA,GUESKEROU,12.99194444,13.52833333,20203,202,2,20104.0,1544,20203014,GUESKEROU,384
415,415,ILLAOURO,93,43.0,50,VA,DIFFA,DIFFA,GUESKEROU,12.91361111,13.46666667,20203,202,2,20104.0,1545,20203027,ILLAOURO ,286
416,416,KANIYA,265,130.0,135,VA,DIFFA,DIFFA,GUESKEROU,12.80444444,13.63944444,20203,202,2,20104.0,1547,20203056,KANIYA,138
417,417,KANIYA,298,145.0,153,VA,DIFFA,DIFFA,GUESKEROU,12.74055556,13.65111111,20203,202,2,20104.0,1550,20203056,KANIYA,138
418,418,KINDJANDI,1162,587.0,575,VA,DIFFA,DIFFA,GUESKEROU,13.15555556,13.80611111,20203,202,2,20104.0,1557,20203005,KINDJANDI I,218
419,419,KRI KOUROUA,141,72.0,69,H,DIFFA,DIFFA,GUESKEROU,12.70888889,13.63166667,20203,202,2,20104.0,1560,20203003,KRI KOUROUA,309
420,420,LAMANA,566,276.0,290,VA,DIFFA,DIFFA,GUESKEROU,13.10527778,13.64527778,20203,202,2,20104.0,1561,20203019,LAMANA,304
421,421,MAKINTARI,173,94.0,79,VA,DIFFA,DIFFA,GUESKEROU,12.84027778,13.7875,20203,202,2,20104.0,1563,20203010,MAKINTARI,80
422,422,MASSA,420,196.0,224,VA,DIFFA,DIFFA,GUESKEROU,12.92861111,13.55861111,20203,202,2,20104.0,1569,20203036,MASSA,285
423,423,MATARDE,390,202.0,188,VA,DIFFA,DIFFA,GUESKEROU,12.85388889,13.64,20203,202,2,20104.0,1570,20203011,MATARDE,90
424,424,YARTA,644,309.0,335,VA,DIFFA,DIFFA,GUESKEROU,12.78722222,13.65305556,20203,202,2,20104.0,1592,20203038,YARTA ,220
425,425,YOUWA,852,399.0,453,VA,DIFFA,DIFFA,GUESKEROU,12.8875,13.48666667,20203,202,2,20104.0,1594,20203024,YOUWA,382
426,426,GOUDOUMARIA,4647,2340.0,2307,VA,DIFFA,GOUDOUMARIA,GOUDOUMARIA,11.26222222,13.85944444,20301,203,2,20202.0,1596,20301001,GOUDOUMARIA I,449
427,427,GOUDOUMARIA,4647,2340.0,2307,VA,DIFFA,GOUDOUMARIA,GOUDOUMARIA,11.26222222,13.85944444,20301,203,2,20202.0,1596,20301005,GOUDOUMARIA V,318
428,428,ABARAM,408,196.0,212,VA,DIFFA,GOUDOUMARIA,GOUDOUMARIA,11.45944444,13.92222222,20301,203,2,20202.0,1598,20301137,ABARAM,232
429,429,ABOUJA,1318,633.0,685,VA,DIFFA,GOUDOUMARIA,GOUDOUMARIA,11.15555556,13.51027778,20301,203,2,20202.0,1605,20301078,ABOUJA 1,320
430,430,ABOUJA,1318,633.0,685,VA,DIFFA,GOUDOUMARIA,GOUDOUMARIA,11.15555556,13.51027778,20301,203,2,20202.0,1605,20301079,ABOUJA 2,239
431,431,ABOUJA,1318,633.0,685,VA,DIFFA,GOUDOUMARIA,GOUDOUMARIA,11.15555556,13.51027778,20301,203,2,20202.0,1605,20301080,ABOUJA 3,318
432,432,ADIA,355,187.0,168,CPT,DIFFA,GOUDOUMARIA,GOUDOUMARIA,11.44055556,14.26555556,20301,203,2,20202.0,1610,20301150,ADIA,396
433,433,ANASSABOUL,293,148.0,145,VA,DIFFA,GOUDOUMARIA,GOUDOUMARIA,10.91555556,13.77527778,20301,203,2,20202.0,1622,20301076,ANASSABOUL,278
434,434,BABOULWA NORD,26,14.0,12,H,DIFFA,GOUDOUMARIA,GOUDOUMARIA,11.39972222,14.385,20301,203,2,20202.0,1634,20301034,BABOULWA NORD,255
435,435,BAGALERAM,286,139.0,147,VA,DIFFA,GOUDOUMARIA,GOUDOUMARIA,11.57916667,13.54333333,20301,203,2,20202.0,1636,20301057,BAGALERAM,241
436,436,BARMA WOURIRAM,267,131.0,136,VA,DIFFA,GOUDOUMARIA,GOUDOUMARIA,11.45666667,13.73916667,20301,203,2,20202.0,1641,20301177,BARMA WOURIRAM,335
437,437,BARIRAM,664,328.0,336,VA,DIFFA,GOUDOUMARIA,GOUDOUMARIA,11.38888889,13.58916667,20301,203,2,20202.0,1646,20301083,BARIRAM,430
438,438,BIRNIA,73,39.0,34,H,DIFFA,GOUDOUMARIA,GOUDOUMARIA,11.29166667,13.59277778,20301,203,2,20202.0,1648,20301190,BIRNIA,118
439,439,BODOU,202,107.0,95,H,DIFFA,GOUDOUMARIA,GOUDOUMARIA,11.37055556,13.98694444,20301,203,2,20202.0,1662,20301205,BODOU,208
440,440,BOUDARAM,350,173.0,177,VA,DIFFA,GOUDOUMARIA,GOUDOUMARIA,11.63944444,14.00888889,20301,203,2,20202.0,1667,20301170,BOUDARAM,299
441,441,BOUDOUA,48,25.0,23,VA,DIFFA,GOUDOUMARIA,GOUDOUMARIA,11.85833333,13.91138889,20301,203,2,20202.0,1668,20301028,BOUDOUA,313
442,442,BOULOUSSOU,110,56.0,54,H,DIFFA,GOUDOUMARIA,GOUDOUMARIA,10.96944444,13.86083333,20301,203,2,20202.0,1689,20301118,BOULOUSSOU,123
443,443,BOUTTI,5768,3013.0,2755,,DIFFA,GOUDOUMARIA,GOUDOUMARIA,11.35666667,14.01055556,20301,203,2,20202.0,1696,20301014,BOUTTI I,448
444,444,BOUTTI,5768,3013.0,2755,,DIFFA,GOUDOUMARIA,GOUDOUMARIA,11.35666667,14.01055556,20301,203,2,20202.0,1696,20301018,BOUTTI V,448
445,445,CHAOU,98,54.0,44,CPT,DIFFA,GOUDOUMARIA,GOUDOUMARIA,11.70694444,14.04361111,20301,203,2,20202.0,1702,20301039,CHAOU,260
446,446,DAMAGARAM,222,105.0,117,VA,DIFFA,GOUDOUMARIA,GOUDOUMARIA,11.78472222,13.91611111,20301,203,2,20202.0,1717,20301046,DAMAGARAM,249
447,447,DIGUEWA PEULH,304,164.0,140,VA,DIFFA,GOUDOUMARIA,GOUDOUMARIA,11.38388889,14.09472222,20301,203,2,20202.0,1724,20301023,DIGUEWA PEULH,249
448,448,DIRGUIA FADA,130,70.0,60,VA,DIFFA,GOUDOUMARIA,GOUDOUMARIA,11.20888889,13.85111111,20301,203,2,20202.0,1726,20301151,DIRGUIA FADA,215
449,449,DJADJIRI CANADA,2024,1034.0,990,VA,DIFFA,GOUDOUMARIA,GOUDOUMARIA,11.63694444,13.74166667,20301,203,2,20202.0,1730,20301198,DJADJIRI CANADA 1,396
450,450,DJADJIRI CANADA,2024,1034.0,990,VA,DIFFA,GOUDOUMARIA,GOUDOUMARIA,11.63694444,13.74166667,20301,203,2,20202.0,1730,20301199,DJADJIRI CANADA 2,397
451,451,DJADJIRI CANADA,2024,1034.0,990,VA,DIFFA,GOUDOUMARIA,GOUDOUMARIA,11.63694444,13.74166667,20301,203,2,20202.0,1730,20301202,DJADJIRI CANADA  3,400
452,452,DJADJIRI CANADA,2024,1034.0,990,VA,DIFFA,GOUDOUMARIA,GOUDOUMARIA,11.63694444,13.74166667,20301,203,2,20202.0,1730,20301243,DJADJIRI CANADA 4,189
453,453,DJADJIRI MANGA,109,54.0,55,VA,DIFFA,GOUDOUMARIA,GOUDOUMARIA,11.72138889,13.8025,20301,203,2,20202.0,1732,20301169,DJADJIRI MANGA,388
454,454,DJATORAM,133,61.0,72,VA,DIFFA,GOUDOUMARIA,GOUDOUMARIA,11.39527778,14.19444444,20301,203,2,20202.0,1735,20301099,DJATORAM,178
455,455,DAKORADI,331,171.0,160,VA,DIFFA,GOUDOUMARIA,GOUDOUMARIA,11.13277778,13.64527778,20301,203,2,20202.0,1747,20301207,DAKORADI,105
456,456,FAYA KOURA,309,171.0,138,VA,DIFFA,GOUDOUMARIA,GOUDOUMARIA,11.13666667,13.68555556,20301,203,2,20202.0,1765,20301228,FAYA KOURA,240
457,457,FONGORIMARAM,68,38.0,30,VA,DIFFA,GOUDOUMARIA,GOUDOUMARIA,11.52,13.64722222,20301,203,2,20202.0,1769,20301239,FONGORIMARAM 2,254
458,458,GADOURAM,198,95.0,103,H,DIFFA,GOUDOUMARIA,GOUDOUMARIA,11.44333333,13.92444444,20301,203,2,20202.0,1777,20301227,GADOURAM,283
459,459,GAMBALLAM,122,55.0,67,H,DIFFA,GOUDOUMARIA,GOUDOUMARIA,11.59055556,13.735,20301,203,2,20202.0,1785,20301194,GAMBALLAM,246
460,460,GAROUA,102,50.0,52,VA,DIFFA,GOUDOUMARIA,GOUDOUMARIA,11.03944444,13.85111111,20301,203,2,20202.0,1791,20301180,GAROUA,161
461,461,GONIDI,81,41.0,40,VA,DIFFA,GOUDOUMARIA,GOUDOUMARIA,10.88527778,13.785,20301,203,2,20202.0,1802,20301109,GONIDI,202
462,462,GONIDI,183,96.0,87,VA,DIFFA,GOUDOUMARIA,GOUDOUMARIA,11.45194444,13.565,20301,203,2,20202.0,1803,20301109,GONIDI,202
463,463,GOUDOUKA,176,89.0,87,VA,DIFFA,GOUDOUMARIA,GOUDOUMARIA,11.37333333,13.68416667,20301,203,2,20202.0,1807,20301088,GOUDOUKA,185
464,464,GOUMSIMARAM MANGA,296,146.0,150,VA,DIFFA,GOUDOUMARIA,GOUDOUMARIA,11.76416667,13.90277778,20301,203,2,20202.0,1808,20301196,GOUMSIMARAM MANGA,107
465,465,GUIRSILIK,457,211.0,246,VA,DIFFA,GOUDOUMARIA,GOUDOUMARIA,10.79638889,13.73555556,20301,203,2,20202.0,1820,20301110,GUIRSILIK,357
466,466,ISSARI FOUSSAMI,303,160.0,143,VA,DIFFA,GOUDOUMARIA,GOUDOUMARIA,11.14722222,13.71,20301,203,2,20202.0,1826,20301181,ISSARI FOUSSAMI,271
467,467,KATCHALLARI,99,53.0,46,VA,DIFFA,GOUDOUMARIA,GOUDOUMARIA,11.53083333,13.71,20301,203,2,20202.0,1829,20301074,KATCHALLARI,78
468,468,KATCHALLARI,79,43.0,36,VA,DIFFA,GOUDOUMARIA,GOUDOUMARIA,11.53083333,13.71,20301,203,2,20202.0,1879,20301074,KATCHALLARI,78
469,469,KADELABOA,385,180.0,205,VA,DIFFA,GOUDOUMARIA,GOUDOUMARIA,11.09,13.81083333,20301,203,2,20202.0,1832,20301166,KADELABOA,209
470,470,KANA IDO,551,271.0,280,VA,DIFFA,GOUDOUMARIA,GOUDOUMARIA,11.0275,13.69416667,20301,203,2,20202.0,1844,20301163,KANA IDO I,297
471,471,KANDIRADI,236,127.0,109,VA,DIFFA,GOUDOUMARIA,GOUDOUMARIA,11.25583333,13.54083333,20301,203,2,20202.0,1848,20301130,KANDIRADI,168
472,472,KANGARWA,225,111.0,114,H,DIFFA,GOUDOUMARIA,GOUDOUMARIA,11.76833333,13.52444444,20301,203,2,20202.0,1849,20301058,KANGARWA,94
473,473,KANIA,365,184.0,181,VA,DIFFA,GOUDOUMARIA,GOUDOUMARIA,11.27083333,13.92777778,20301,203,2,20202.0,1853,20301178,KANIA,138
474,474,KANTANARI,10,7.0,3,H,DIFFA,GOUDOUMARIA,GOUDOUMARIA,11.0325,13.95277778,20301,203,2,20202.0,1854,20301122,KANTANARI,126
475,475,KARAGOU MANDARAM,584,270.0,314,VA,DIFFA,GOUDOUMARIA,GOUDOUMARIA,11.17583333,13.72555556,20301,203,2,20202.0,1856,20301155,KARAGOU MANDARAM 1,248
476,476,KARAGOU MANDARAM,584,270.0,314,VA,DIFFA,GOUDOUMARIA,GOUDOUMARIA,11.17583333,13.72555556,20301,203,2,20202.0,1856,20301245,KARAGOU MANDARAM 2,448
477,477,KILBOUA,218,105.0,113,VA,DIFFA,GOUDOUMARIA,GOUDOUMARIA,11.27222222,13.54222222,20301,203,2,20202.0,1889,20301143,KILBOUA,180
478,478,KODJIMERI,748,403.0,345,VA,DIFFA,GOUDOUMARIA,GOUDOUMARIA,11.32583333,13.5975,20301,203,2,20202.0,1895,20301084,KODJIMERI 1,203
479,479,KODJIMERI,748,403.0,345,VA,DIFFA,GOUDOUMARIA,GOUDOUMARIA,11.32583333,13.5975,20301,203,2,20202.0,1895,20301108,KODJIMERI 2,214
480,480,KOULA KOULA,288,143.0,145,VA,DIFFA,GOUDOUMARIA,GOUDOUMARIA,11.43638889,14.10805556,20301,203,2,20202.0,1920,20301131,KOULA KOULA,276
481,481,LAWANDI BOULTOURAM,71,32.0,39,VA,DIFFA,GOUDOUMARIA,GOUDOUMARIA,10.7625,13.51555556,20301,203,2,20202.0,1941,20301235,LAWANDI BOULTOURAM,234
482,482,MADJI KAMARAM,192,93.0,99,VA,DIFFA,GOUDOUMARIA,GOUDOUMARIA,11.58055556,13.85527778,20301,203,2,20202.0,1947,20301139,MADJI KAMARAM,187
483,483,MADOU KAKOURI,641,323.0,318,VA,DIFFA,GOUDOUMARIA,GOUDOUMARIA,11.34916667,13.64416667,20301,203,2,20202.0,1948,20301081,MADOU KAKOURI,300
484,484,MANDAWA,214,107.0,107,H,DIFFA,GOUDOUMARIA,GOUDOUMARIA,11.77388889,13.92388889,20301,203,2,20202.0,1962,20301043,MANDAWA,148
485,485,MANDAWA,148,68.0,80,CPT,DIFFA,GOUDOUMARIA,GOUDOUMARIA,11.68944444,14.03972222,20301,203,2,20202.0,1963,20301043,MANDAWA,148
486,486,MISKINDI,295,171.0,124,VA,DIFFA,GOUDOUMARIA,GOUDOUMARIA,11.00305556,13.68388889,20301,203,2,20202.0,1978,20301179,MISKINDI,249
487,487,NARI,333,187.0,146,H,DIFFA,GOUDOUMARIA,GOUDOUMARIA,11.12222222,13.98305556,20301,203,2,20202.0,1981,20301191,NARI,304
488,488,N'GUEL KAYA,337,197.0,140,VA,DIFFA,GOUDOUMARIA,GOUDOUMARIA,11.55611111,13.52333333,20301,203,2,20202.0,2009,20301082,N'GUEL KAYA,179
489,489,RAMADI,693,356.0,337,VA,DIFFA,GOUDOUMARIA,GOUDOUMARIA,11.41527778,13.57027778,20301,203,2,20202.0,2031,20301062,RAMADI,346
490,490,REREWA KRILAMA,156,74.0,82,VA,DIFFA,GOUDOUMARIA,GOUDOUMARIA,11.69083333,13.53722222,20301,203,2,20202.0,2033,20301073,REREWA KRILAMA,303
491,491,TALBARI,42,18.0,24,VA,DIFFA,GOUDOUMARIA,GOUDOUMARIA,11.80611111,13.7675,20301,203,2,20202.0,2048,20301059,TALBARI,234
492,492,WAKADJI,164,78.0,86,H,DIFFA,GOUDOUMARIA,GOUDOUMARIA,11.23888889,13.77888889,20301,203,2,20202.0,2068,20301173,WAKADJI,120
493,493,WALERAM,118,50.0,68,VA,DIFFA,GOUDOUMARIA,GOUDOUMARIA,11.00722222,13.84527778,20301,203,2,20202.0,2069,20301210,WALERAM,127
494,494,WANDO WADJI,110,52.0,58,VA,DIFFA,GOUDOUMARIA,GOUDOUMARIA,11.78194444,13.85527778,20301,203,2,20202.0,2071,20301047,WANDO WADJI,214
495,495,WARGAZA,145,80.0,65,CPT,DIFFA,GOUDOUMARIA,GOUDOUMARIA,11.58333333,13.88361111,20301,203,2,20202.0,2074,20301044,WARGAZA,146
496,496,YERIMARAM,521,258.0,263,VA,DIFFA,GOUDOUMARIA,GOUDOUMARIA,11.49916667,13.96916667,20301,203,2,20202.0,2081,20301159,YERIMARAM 1,163
497,497,YERIMARAM,521,258.0,263,VA,DIFFA,GOUDOUMARIA,GOUDOUMARIA,11.49916667,13.96916667,20301,203,2,20202.0,2081,20301246,YERIMARAM 2,155
498,498,CHILLOUKO,88,50.0,38,VA,DIFFA,MAINE-SOROA,FOULATARI,12.06444444,13.66722222,20401,204,2,20201.0,2127,20401011,CHILLOUKO,169
499,499,DOLEROU,318,158.0,160,VA,DIFFA,MAINE-SOROA,FOULATARI,12.32333333,14.00666667,20401,204,2,20201.0,2142,20401015,DOLEROU,280
500,500,DOUMAWA,179,98.0,81,CPT,DIFFA,MAINE-SOROA,FOULATARI,11.90888889,13.63416667,20401,204,2,20201.0,2147,20401018,DOUMAWA,211
501,501,FORDOU,131,61.0,70,CPT,DIFFA,MAINE-SOROA,FOULATARI,11.97611111,14.56555556,20401,204,2,20201.0,2152,20401023,FORDOU,100
502,502,FOULATARI,682,342.0,340,VA,DIFFA,MAINE-SOROA,FOULATARI,12.1575,13.55194444,20401,204,2,20201.0,2153,20401020,FOULATARI I,230
503,503,FOULATARIHO,188,111.0,77,CPT,DIFFA,MAINE-SOROA,FOULATARI,12.12722222,13.8925,20401,204,2,20201.0,2154,20401022,FOULATARIHO,280
504,504,MIR,190,92.0,98,VA,DIFFA,MAINE-SOROA,FOULATARI,12.06555556,14.23388889,20401,204,2,20201.0,2260,20401053,MIR,232
505,505,TATTA,82,44.0,38,VA,DIFFA,MAINE-SOROA,FOULATARI,11.95583333,13.76333333,20401,204,2,20201.0,2338,20401070,TATTA,238
506,506,TOUBORI,47,23.0,24,VA,DIFFA,MAINE-SOROA,FOULATARI,12.38972222,13.945,20401,204,2,20201.0,2340,20401068,TOUBORI,178
507,507,ABADJADJIRI,265,135.0,130,VA,DIFFA,MAINE-SOROA,MAINE SOROA,12.38333333,13.36916667,20402,204,2,20203.0,2351,20402111,ABADJADJIRI,79
508,508,ADEBOUR,241,117.0,124,VA,DIFFA,MAINE-SOROA,MAINE SOROA,11.89305556,13.51416667,20402,204,2,20203.0,2359,20402066,ADEBOUR,355
509,509,ALAOURI,515,260.0,255,VA,DIFFA,MAINE-SOROA,MAINE SOROA,12.09694444,13.28777778,20402,204,2,20203.0,2364,20402081,ALAOURI,324
510,510,AMBOURAM ALI,486,255.0,231,VA,DIFFA,MAINE-SOROA,MAINE SOROA,11.98361111,13.42888889,20402,204,2,20203.0,2368,20402042,AMBOURAM ALI I,248
511,511,BOLORI,247,128.0,119,VA,DIFFA,MAINE-SOROA,MAINE SOROA,12.50861111,13.32027778,20402,204,2,20203.0,2387,20402130,BOLORI,94
512,512,BOUDOUM,1375,696.0,679,H,DIFFA,MAINE-SOROA,MAINE SOROA,12.3875,13.32083333,20402,204,2,20203.0,2391,20402038,BOUDOUM I,250
513,513,BOULAMARI KIARI,401,209.0,192,VA,DIFFA,MAINE-SOROA,MAINE SOROA,12.47,13.35361111,20402,204,2,20203.0,2401,20402025,BOULAMARI KIARI,167
514,514,CHERI,1743,914.0,829,VA,DIFFA,MAINE-SOROA,MAINE SOROA,11.42611111,13.50666667,20402,204,2,20203.0,2409,20402050,CHERI I,256
515,515,CHERI,1743,914.0,829,VA,DIFFA,MAINE-SOROA,MAINE SOROA,11.42611111,13.50666667,20402,204,2,20203.0,2409,20402137,CHERI 4,226
516,516,CHERI,1743,914.0,829,VA,DIFFA,MAINE-SOROA,MAINE SOROA,11.42611111,13.50666667,20402,204,2,20203.0,2409,20402160,CHERI V,220
517,517,DALAWAKO,218,117.0,101,VA,DIFFA,MAINE-SOROA,MAINE SOROA,12.11194444,13.43583333,20402,204,2,20203.0,2411,20402007,DALAWAKO,193
518,518,DJERE YAKOU,241,119.0,122,CPT,DIFFA,MAINE-SOROA,MAINE SOROA,11.38194444,13.56444444,20402,204,2,20203.0,2421,20402158,DJERE YAKOU,246
519,519,DOUMAWA,52,27.0,25,VA,DIFFA,MAINE-SOROA,MAINE SOROA,12.07083333,13.40638889,20402,204,2,20203.0,2426,20402126,DOUMAWA,140
520,520,FARGA,532,281.0,251,VA,DIFFA,MAINE-SOROA,MAINE SOROA,12.01166667,13.83722222,20402,204,2,20203.0,2429,20402079,FARGA,357
521,521,FAYA ISSA,426,218.0,208,VA,DIFFA,MAINE-SOROA,MAINE SOROA,11.52833333,13.60166667,20402,204,2,20203.0,2431,20402083,FAYA ISSA,278
522,522,FAYA MARI KIME,144,74.0,70,VA,DIFFA,MAINE-SOROA,MAINE SOROA,12.00361111,13.53722222,20402,204,2,20203.0,2433,20402147,FAYA MARI KIME,150
523,523,FERAM,350,171.0,179,VA,DIFFA,MAINE-SOROA,MAINE SOROA,11.95444444,13.64888889,20402,204,2,20203.0,2434,20402029,FERAM,139
524,524,FOURSARI,555,295.0,260,VA,DIFFA,MAINE-SOROA,MAINE SOROA,12.14416667,13.43194444,20402,204,2,20203.0,2437,20402072,FOURSARI,176
525,525,GADORI,99,51.0,48,VA,DIFFA,MAINE-SOROA,MAINE SOROA,12.10611111,13.3675,20402,204,2,20203.0,2438,20402016,GADORI,331
526,526,GARGARIRAM,731,360.0,371,VA,DIFFA,MAINE-SOROA,MAINE SOROA,12.19277778,13.24833333,20402,204,2,20203.0,2441,20402012,GARGARIRAM,318
527,527,GOUJOU,431,235.0,196,VA,DIFFA,MAINE-SOROA,MAINE SOROA,12.06055556,13.48027778,20402,204,2,20203.0,2444,20402068,GOUJOU,130
528,528,GREMADI,759,411.0,348,VA,DIFFA,MAINE-SOROA,MAINE SOROA,12.18611111,13.28111111,20402,204,2,20203.0,2446,20402037,GREMADI,155
529,529,KANDILWA YOURA,576,287.0,289,CPT,DIFFA,MAINE-SOROA,MAINE SOROA,12.32722222,13.31194444,20402,204,2,20203.0,2467,20402049,KANDILWA YOURA,235
530,530,KAOUDAMARAM,480,259.0,221,CPT,DIFFA,MAINE-SOROA,MAINE SOROA,11.55805556,13.58222222,20402,204,2,20203.0,2470,20402152,KAOUDAMARAM I,216
531,531,KOGOUA,806,403.0,403,VA,DIFFA,MAINE-SOROA,MAINE SOROA,11.95916667,13.58138889,20402,204,2,20203.0,2482,20402149,KOGOUA,264
532,532,KOLOL,270,144.0,126,VA,DIFFA,MAINE-SOROA,MAINE SOROA,11.88666667,13.84194444,20402,204,2,20203.0,2483,20402027,KOLOL,330
533,533,KOUBLE ELH SAIDOU,517,256.0,261,VA,DIFFA,MAINE-SOROA,MAINE SOROA,12.44611111,13.36527778,20402,204,2,20203.0,2498,20402077,KOUBLE ELH SAIDOU,256
534,534,LAWAN MADOU KOURA,281,146.0,135,VA,DIFFA,MAINE-SOROA,MAINE SOROA,12.56305556,13.30972222,20402,204,2,20203.0,2505,20402031,LAWAN MADOU KOURA,250
535,535,LAWANDI,269,126.0,143,VA,DIFFA,MAINE-SOROA,MAINE SOROA,12.07777778,13.43888889,20402,204,2,20203.0,2507,20402073,LAWANDI,167
536,536,MARIRI,433,240.0,193,VA,DIFFA,MAINE-SOROA,MAINE SOROA,11.76388889,13.53305556,20402,204,2,20203.0,2519,20402063,MARIRI,334
537,537,N'GOUSKOU,313,152.0,161,VA,DIFFA,MAINE-SOROA,MAINE SOROA,11.93527778,13.73277778,20402,204,2,20203.0,2538,20402096,N'GOUSKOU,178
538,538,TAM,1704,810.0,894,VA,DIFFA,MAINE-SOROA,MAINE SOROA,12.17444444,13.19277778,20402,204,2,20203.0,2547,20402035,TAM I,241
539,539,TAMSOUGOUA,332,172.0,160,VA,DIFFA,MAINE-SOROA,MAINE SOROA,11.9,13.57305556,20402,204,2,20203.0,2549,20402150,TAMSOUGOUA,103
540,540,TCHOLORI,368,188.0,180,VA,DIFFA,MAINE-SOROA,MAINE SOROA,12.58333333,13.25694444,20402,204,2,20203.0,2560,20402132,TCHOLORI,149
541,541,YABARI,291,152.0,139,VA,DIFFA,MAINE-SOROA,MAINE SOROA,11.93222222,13.56277778,20402,204,2,20203.0,2564,20402134,YABARI,194
542,542,YAMKONE,346,182.0,164,VA,DIFFA,MAINE-SOROA,MAINE SOROA,11.91416667,13.36472222,20402,204,2,20203.0,2565,20402108,YAMKONE,95
543,543,ZARAMIDI,86,43.0,43,H,DIFFA,MAINE-SOROA,MAINE SOROA,12.43222222,13.40361111,20402,204,2,20203.0,2567,20402110,ZARAMIDI,25
544,544,CHEMGUEL,120,63.0,57,CPT,DIFFA,MAINE-SOROA,N'GUELBELY,12.16972222,14.2,20403,204,2,20204.0,2581,20403008,CHEMGUEL,275
545,545,DOUMBA,163,79.0,84,VA,DIFFA,MAINE-SOROA,N'GUELBELY,11.92083333,14.10805556,20403,204,2,20204.0,2593,20403011,DOUMBA,220
546,546,KASSOULWA KOUNOU,82,40.0,42,CPT,DIFFA,MAINE-SOROA,N'GUELBELY,11.84388889,14.29111111,20403,204,2,20204.0,2613,20403023,KASSOULWA KOUNOU,232
547,547,N'GAOUSSOU,425,225.0,200,VA,DIFFA,MAINE-SOROA,N'GUELBELY,11.93805556,14.46861111,20403,204,2,20204.0,2631,20403046,N'GAOUSSOU,177
548,548,N'GUEL AYOUBA,937,471.0,466,VA,DIFFA,MAINE-SOROA,N'GUELBELY,11.87972222,14.52722222,20403,204,2,20204.0,2637,20403031,N'GUEL AYOUBA I,264
549,549,N'GUEL DANDA,295,150.0,145,VA,DIFFA,MAINE-SOROA,N'GUELBELY,12.13805556,13.91916667,20403,204,2,20204.0,2646,20403041,N'GUEL DANDA,154
550,550,N'GUEL DJOULA,105,60.0,45,VA,DIFFA,MAINE-SOROA,N'GUELBELY,11.83333333,14.15416667,20403,204,2,20204.0,2653,20403043,N'GUEL DJOULA,228
551,551,TOUNKOUDA,135,56.0,79,CPT,DIFFA,MAINE-SOROA,N'GUELBELY,12.09944444,14.6075,20403,204,2,20204.0,2689,20403051,TOUNKOUDA,238
552,552,ZORMODO,582,288.0,294,VA,DIFFA,MAINE-SOROA,N'GUELBELY,12.11694444,14.65416667,20403,204,2,20204.0,2694,20403054,ZORMODO I,292
553,553,N'GOURTI,1627,933.0,694,VA,DIFFA,N'GOURTI,N'GOURTI,13.39527778,15.47916667,20501,205,2,20302.0,2695,20501001,N'GOURTI 1,385
554,554,N'GOURTI,1627,933.0,694,VA,DIFFA,N'GOURTI,N'GOURTI,13.39527778,15.47916667,20501,205,2,20302.0,2695,20501002,N'GOURTI 2,472
555,555,N'GOURTI,1627,933.0,694,VA,DIFFA,N'GOURTI,N'GOURTI,13.39527778,15.47916667,20501,205,2,20302.0,2695,20501003,N'GOURTI 3,434
556,556,N'GOURTI,1627,933.0,694,VA,DIFFA,N'GOURTI,N'GOURTI,13.39527778,15.47916667,20501,205,2,20302.0,2695,20501004,N'GOURTI 4,389
557,557,ADIDA,178,94.0,84,VA,DIFFA,N'GOURTI,N'GOURTI,12.94444444,14.8575,20501,205,2,20302.0,2702,20501037,ADIDA,271
558,558,AGADEM,487,255.0,232,VA,DIFFA,N'GOURTI,N'GOURTI,13.49722222,16.92694444,20501,205,2,20302.0,2704,20501104,AGADEM,96
559,559,AGADI,165,87.0,78,VA,DIFFA,N'GOURTI,N'GOURTI,13.91666667,15.30944444,20501,205,2,20302.0,2705,20501093,AGADI,226
560,560,ARKINEY,184,87.0,97,VA,DIFFA,N'GOURTI,N'GOURTI,13.54,14.84416667,20501,205,2,20302.0,2718,20501110,ARKINEY,121
561,561,ARKINEY,12,6.0,6,CPT,DIFFA,N'GOURTI,N'GOURTI,12.13611111,15.31694444,20501,205,2,20302.0,2719,20501110,ARKINEY,121
562,562,BARKI,213,109.0,104,CPT,DIFFA,N'GOURTI,N'GOURTI,13.225,14.98833333,20501,205,2,20302.0,2735,20501018,BARKI,235
563,563,BARKANGA,105,56.0,49,VA,DIFFA,N'GOURTI,N'GOURTI,13.41916667,15.44861111,20501,205,2,20302.0,2739,20501099,BARKANGA,130
564,564,BITINGA,151,86.0,65,VA,DIFFA,N'GOURTI,N'GOURTI,13.58,14.57611111,20501,205,2,20302.0,2744,20501080,BITINGA,211
565,565,BLATAYE,154,73.0,81,VA,DIFFA,N'GOURTI,N'GOURTI,13.35027778,15.48555556,20501,205,2,20302.0,2753,20501095,BLATAYE,170
566,566,BOURBOURWA EST,182,89.0,93,VA,DIFFA,N'GOURTI,N'GOURTI,13.61555556,14.75861111,20501,205,2,20302.0,2766,20501075,BOURBOURWA EST,279
567,567,CHAWA MABAR,149,80.0,69,VA,DIFFA,N'GOURTI,N'GOURTI,13.18333333,15.04055556,20501,205,2,20302.0,2777,20501027,CHAWA MABAR,177
568,568,DJADINGA,371,199.0,172,VA,DIFFA,N'GOURTI,N'GOURTI,13.81833333,14.74805556,20501,205,2,20302.0,2803,20501082,DJADINGA,244
569,569,DJEGUEL,279,143.0,136,VA,DIFFA,N'GOURTI,N'GOURTI,13.26777778,15.155,20501,205,2,20302.0,2807,20501026,DJEGUEL,180
570,570,DJOULI,90,42.0,48,VA,DIFFA,N'GOURTI,N'GOURTI,13.66777778,15.02305556,20501,205,2,20302.0,2814,20501092,DJOULI,156
571,571,FORT,316,159.0,157,VA,DIFFA,N'GOURTI,N'GOURTI,13.90666667,14.80305556,20501,205,2,20302.0,2851,20501085,FORT,276
572,572,GRADE,44,21.0,23,PE,DIFFA,N'GOURTI,N'GOURTI,12.99944444,14.83055556,20501,205,2,20302.0,2867,20501111,GRADE,194
573,573,IBRANGA,384,197.0,187,VA,DIFFA,N'GOURTI,N'GOURTI,12.10138889,15.32666667,20501,205,2,20302.0,2883,20501050,IBRANGA,91
574,574,KARGAWAR,190,101.0,89,VA,DIFFA,N'GOURTI,N'GOURTI,13.36361111,14.67472222,20501,205,2,20302.0,2904,20501008,KARGAWAR,255
575,575,KILAKAMI,177,99.0,78,VA,DIFFA,N'GOURTI,N'GOURTI,13.60916667,15.23555556,20501,205,2,20302.0,2917,20501024,KILAKAMI,210
576,576,KOUNTIGUI GANA,421,213.0,208,VA,DIFFA,N'GOURTI,N'GOURTI,13.69055556,14.68861111,20501,205,2,20302.0,2940,20501083,KOUNTIGUI GANA,244
577,577,LAKANI,400,211.0,189,VA,DIFFA,N'GOURTI,N'GOURTI,12.62972222,15.05083333,20501,205,2,20302.0,2945,20501033,LAKANI,241
578,578,LOUBOUS,486,265.0,221,VA,DIFFA,N'GOURTI,N'GOURTI,13.83638889,14.90166667,20501,205,2,20302.0,2951,20501078,LOUBOUS,227
579,579,MATAN DJANA,203,106.0,97,VA,DIFFA,N'GOURTI,N'GOURTI,12.5175,15.34888889,20501,205,2,20302.0,2959,20501058,MATAN DJANA,71
580,580,MELECK,147,84.0,63,VA,DIFFA,N'GOURTI,N'GOURTI,13.10027778,15.67638889,20501,205,2,20302.0,2961,20501096,MELECK,261
581,581,N'GUEL DERI EST,229,115.0,114,PE,DIFFA,N'GOURTI,N'GOURTI,12.94888889,15.01888889,20501,205,2,20302.0,2979,20501029,N'GUEL DERI EST,256
582,582,N'GUEL BELLO,185,86.0,99,VA,DIFFA,N'GOURTI,N'GOURTI,13.39277778,14.76805556,20501,205,2,20302.0,2980,20501012,N'GUEL BELLO,214
583,583,OLOMI,345,179.0,166,VA,DIFFA,N'GOURTI,N'GOURTI,12.22277778,15.59472222,20501,205,2,20302.0,2996,20501053,OLOMI,226
584,584,OROMOU,225,109.0,116,VA,DIFFA,N'GOURTI,N'GOURTI,12.27638889,15.20805556,20501,205,2,20302.0,3009,20501056,OROMOU,160
585,585,KARAM,193,94.0,99,VA,DIFFA,N'GOURTI,N'GOURTI,13.4825,14.63861111,20501,205,2,20302.0,3011,20501088,KARAM,217
586,586,TALATACHE,135,70.0,65,VA,DIFFA,N'GOURTI,N'GOURTI,13.08722222,14.60444444,20501,205,2,20302.0,3036,20501007,TALATACHE,127
587,587,BARAM MOUSSA,90,46.0,44,PE,DIFFA,N'GUIGMI,KABLEWA,13.07138889,14.28583333,20601,206,2,20301.0,3107,20601021,BARAM MOUSSA,149
588,588,CHAANGA,255,138.0,117,CPT,DIFFA,N'GUIGMI,KABLEWA,12.70305556,14.15,20601,206,2,20301.0,3116,20601048,CHAANGA,152
589,589,FAYOL,120,64.0,56,VA,DIFFA,N'GUIGMI,KABLEWA,12.54805556,14.37583333,20601,206,2,20301.0,3126,20601035,FAYOL ,120
590,590,KABLEWA,2537,1334.0,1203,VA,DIFFA,N'GUIGMI,KABLEWA,13.14083333,14.15111111,20601,206,2,20301.0,3146,20601001,KABLEWA 1,438
591,591,KABLEWA,2537,1334.0,1203,VA,DIFFA,N'GUIGMI,KABLEWA,13.14083333,14.15111111,20601,206,2,20301.0,3146,20601002,KABLEWA 2,447
592,592,KABLEWA,2537,1334.0,1203,VA,DIFFA,N'GUIGMI,KABLEWA,13.14083333,14.15111111,20601,206,2,20301.0,3146,20601003,KABLEWA 3,447
593,593,KABLEWA,2537,1334.0,1203,VA,DIFFA,N'GUIGMI,KABLEWA,13.14083333,14.15111111,20601,206,2,20301.0,3146,20601004,KABLEWA 4,453
594,594,KABLEWA,2537,1334.0,1203,VA,DIFFA,N'GUIGMI,KABLEWA,13.14083333,14.15111111,20601,206,2,20301.0,3146,20601005,KABLEWA 5,449
595,595,KABLEWA,2537,1334.0,1203,VA,DIFFA,N'GUIGMI,KABLEWA,13.14083333,14.15111111,20601,206,2,20301.0,3146,20601006,KABLEWA 6,445
596,596,KARAGOU,176,85.0,91,CPT,DIFFA,N'GUIGMI,KABLEWA,13.10472222,14.14972222,20601,206,2,20301.0,3150,20601010,KARAGOU,46
597,597,KAWA,31,13.0,18,VA,DIFFA,N'GUIGMI,KABLEWA,13.01305556,14.20916667,20601,206,2,20301.0,3155,20601016,KAWA 2,184
598,598,KAWA,31,13.0,18,VA,DIFFA,N'GUIGMI,KABLEWA,13.01305556,14.20916667,20601,206,2,20301.0,3155,20601017,KAWA 2,98
599,599,KORAOU,123,66.0,57,CPT,DIFFA,N'GUIGMI,KABLEWA,12.53194444,14.63027778,20601,206,2,20301.0,3159,20601027,KORAOU,114
600,600,KORTINIRGA,333,154.0,179,VA,DIFFA,N'GUIGMI,KABLEWA,12.7275,13.86166667,20601,206,2,20301.0,3165,20601045,KORTINIRGA 1,234
601,601,KORTINIRGA,333,154.0,179,VA,DIFFA,N'GUIGMI,KABLEWA,12.7275,13.86166667,20601,206,2,20301.0,3165,20601046,KORTINIRGA 2,231
602,602,LOYE,131,66.0,65,PE,DIFFA,N'GUIGMI,KABLEWA,12.98777778,14.33527778,20601,206,2,20301.0,3171,20601033,LOYE,184
603,603,OUDI ARABE,846,435.0,411,CPT,DIFFA,N'GUIGMI,KABLEWA,13.09916667,14.36861111,20601,206,2,20301.0,3208,20601031,OUDI ARABE,127
604,604,OUDI PEULH,779,410.0,369,VA,DIFFA,N'GUIGMI,KABLEWA,13.17444444,14.32194444,20601,206,2,20301.0,3210,20601049,OUDI PEULH 1,136
605,605,OUDI PEULH,779,410.0,369,VA,DIFFA,N'GUIGMI,KABLEWA,13.17444444,14.32194444,20601,206,2,20301.0,3210,20601050,OUDI PEULH 2,185
606,606,CAMEROUN,1021,538.0,483,QT,DIFFA,N'GUIGMI,N'GUIGMI,13.31888889,14.36194444,20602,206,2,20303.0,3232,20602003,CAMEROUN I,305
607,607,DJOULARI,9193,4850.0,4343,QT,DIFFA,N'GUIGMI,N'GUIGMI,13.31888889,14.36194444,20602,206,2,20303.0,3233,20602013,DJOULARI I,428
608,608,DJOULARI,9193,4850.0,4343,QT,DIFFA,N'GUIGMI,N'GUIGMI,13.31888889,14.36194444,20602,206,2,20303.0,3233,20602064,DJOULARI V,431
609,609,GARIN DOLE,4506,2257.0,2249,QT,DIFFA,N'GUIGMI,N'GUIGMI,13.31888889,14.36194444,20602,206,2,20303.0,3234,20602049,GARIN DOLE I,467
610,610,NOUVEAU CARRE,3797,1890.0,1907,QT,DIFFA,N'GUIGMI,N'GUIGMI,13.31888889,14.36194444,20602,206,2,20303.0,3236,20602009,NOUVEAU CARRE I,447
611,611,NOUVEAU CARRE,3797,1890.0,1907,QT,DIFFA,N'GUIGMI,N'GUIGMI,13.31888889,14.36194444,20602,206,2,20303.0,3236,20602075,NOUVEAU CARRE V,423
612,612,BAFALA,260,138.0,122,H,DIFFA,N'GUIGMI,N'GUIGMI,13.30444444,14.41138889,20602,206,2,20303.0,3243,20602063,BAFALA,151
613,613,BARAM DAWE,134,67.0,67,VA,DIFFA,N'GUIGMI,N'GUIGMI,13.38166667,14.57055556,20602,206,2,20303.0,3245,20602080,BARAM DAWE,110
614,614,DORO LELEWA,556,317.0,239,VA,DIFFA,N'GUIGMI,N'GUIGMI,13.60055556,14.22222222,20602,206,2,20303.0,3246,20602067,DORO LELEWA,243
615,615,DORO LELEWA,1270,642.0,628,VA,DIFFA,N'GUIGMI,N'GUIGMI,13.60055556,14.22222222,20602,206,2,20303.0,3257,20602067,DORO LELEWA,243
616,616,BORI,627,332.0,295,VA,DIFFA,N'GUIGMI,N'GUIGMI,13.29333333,14.00444444,20602,206,2,20303.0,3252,20602031,BORI I,249
617,617,FANTA KALERAM,83,47.0,36,VA,DIFFA,N'GUIGMI,N'GUIGMI,13.62722222,14.56,20602,206,2,20303.0,3258,20602079,FANTA KALERAM,100
618,618,FEFEWA II,231,126.0,105,CPT,DIFFA,N'GUIGMI,N'GUIGMI,13.45277778,14.07944444,20602,206,2,20303.0,3259,20602058,FEFEWA II,206
619,619,KANGARWA KOURA,327,173.0,154,CPT,DIFFA,N'GUIGMI,N'GUIGMI,13.32527778,14.12916667,20602,206,2,20303.0,3267,20602054,KANGARWA KOURA,226
620,620,KIRTCHOUA,185,94.0,91,VA,DIFFA,N'GUIGMI,N'GUIGMI,13.60472222,14.44666667,20602,206,2,20303.0,3275,20602082,KIRTCHOUA,179
621,621,KOUTOU,297,166.0,131,VA,DIFFA,N'GUIGMI,N'GUIGMI,13.44805556,14.53388889,20602,206,2,20303.0,3282,20602018,KOUTOU,237
622,622,LANTI,67,40.0,27,H,DIFFA,N'GUIGMI,N'GUIGMI,13.38444444,14.57888889,20602,206,2,20303.0,3283,20602028,LANTI,223
623,623,LISKIDI,325,147.0,178,VA,DIFFA,N'GUIGMI,N'GUIGMI,13.32638889,14.29361111,20602,206,2,20303.0,3288,20602086,LISKIDI,173
624,624,MABOUTOU,165,81.0,84,VA,DIFFA,N'GUIGMI,N'GUIGMI,13.12916667,14.28138889,20602,206,2,20303.0,3289,20602040,MABOUTOU,219
625,625,MELERAM,33,18.0,15,VA,DIFFA,N'GUIGMI,N'GUIGMI,13.4975,14.60722222,20602,206,2,20303.0,3298,20602076,MELERAM,230
626,626,MOURTCHATI,776,403.0,373,VA,DIFFA,N'GUIGMI,N'GUIGMI,13.20583333,14.06666667,20602,206,2,20303.0,3299,20602019,MOURTCHATI I,228
627,627,TCHOUGOUNDI,421,214.0,207,VA,DIFFA,N'GUIGMI,N'GUIGMI,13.29388889,14.0475,20602,206,2,20303.0,3315,20602037,TCHOUGOUNDI,169
628,628,BANIZOUMBOU,1420,675.0,745,QT,DOSSO,BOBOYE,BIRNI N'GAOURE,3.032777778,13.29972222,30101,301,3,30101.0,3325,30101006,Banizoumbou,491
629,629,BIRNI KAINA,325,171.0,154,QT,DOSSO,BOBOYE,BIRNI N'GAOURE,3.032777778,13.29972222,30101,301,3,30101.0,3326,30101007,Birni Kaina,224
630,630,BIRNI KAINA,87,38.0,49,H,DOSSO,BOBOYE,BIRNI N'GAOURE,2.880833333,13.09583333,30101,301,3,30101.0,3336,30101007,Birni Kaina,224
631,631,KOTAKI,2169,1062.0,1107,QT,DOSSO,BOBOYE,BIRNI N'GAOURE,3.032777778,13.29972222,30101,301,3,30101.0,3329,30101008,Kotaki 1,472
632,632,KOTAKI,2169,1062.0,1107,QT,DOSSO,BOBOYE,BIRNI N'GAOURE,3.032777778,13.29972222,30101,301,3,30101.0,3329,30101009,Kotaki 2,475
633,633,AMARZA TOUNGA,64,36.0,28,H,DOSSO,BOBOYE,BIRNI N'GAOURE,3.086944444,13.17416667,30101,301,3,30101.0,3332,30101041,Amarza Tounga,331
634,634,BOULAOLA,141,61.0,80,VA,DOSSO,BOBOYE,BIRNI N'GAOURE,2.982777778,13.32083333,30101,301,3,30101.0,3343,30101016,Boulaola,345
635,635,DOLDOL,1166,574.0,592,VA,DOSSO,BOBOYE,BIRNI N'GAOURE,2.795833333,13.30694444,30101,301,3,30101.0,3353,30101059,Doldol,446
636,636,DONOUDIBI PEULH,103,51.0,52,VA,DOSSO,BOBOYE,BIRNI N'GAOURE,2.944166667,13.13,30101,301,3,30101.0,3357,30101029,Donoudibi Peulh,337
637,637,GOBERI PEULH,410,222.0,188,VA,DOSSO,BOBOYE,BIRNI N'GAOURE,2.890833333,12.98972222,30101,301,3,30101.0,3369,30101048,Goberi Peulh,321
638,638,GOUNOUBI,945,436.0,509,VA,DOSSO,BOBOYE,BIRNI N'GAOURE,2.808055556,13.25527778,30101,301,3,30101.0,3374,30101068,Gounoubi 1,309
639,639,GOUNOUBI,945,436.0,509,VA,DOSSO,BOBOYE,BIRNI N'GAOURE,2.808055556,13.25527778,30101,301,3,30101.0,3374,30101069,Gounoubi 2,299
640,640,HAOULAWAL ZARMA,764,332.0,432,VA,DOSSO,BOBOYE,BIRNI N'GAOURE,3.181944444,13.15527778,30101,301,3,30101.0,3380,30101042,Haoulawal Zarma 1,375
641,641,HAOULAWAL ZARMA,764,332.0,432,VA,DOSSO,BOBOYE,BIRNI N'GAOURE,3.181944444,13.15527778,30101,301,3,30101.0,3380,30101043,Haoulawal Zarma 2,218
642,642,HAOULAWAL PEULH,329,154.0,175,VA,DOSSO,BOBOYE,BIRNI N'GAOURE,2.961944444,13.21805556,30101,301,3,30101.0,3381,30101044,Haoulawal Peulh,198
643,643,ILLADE,504,266.0,238,VA,DOSSO,BOBOYE,BIRNI N'GAOURE,2.826388889,13.07972222,30101,301,3,30101.0,3383,30101058,Illade,117
644,644,KARRA,3115,1496.0,1619,VA,DOSSO,BOBOYE,BIRNI N'GAOURE,3.169166667,13.26027778,30101,301,3,30101.0,3388,30101032,Karra 1,423
645,645,KARRA,3115,1496.0,1619,VA,DOSSO,BOBOYE,BIRNI N'GAOURE,3.169166667,13.26027778,30101,301,3,30101.0,3388,30101033,Karra 2,399
646,646,KARRA,3115,1496.0,1619,VA,DOSSO,BOBOYE,BIRNI N'GAOURE,3.169166667,13.26027778,30101,301,3,30101.0,3388,30101034,Karra 3,329
647,647,KARRA,3115,1496.0,1619,VA,DOSSO,BOBOYE,BIRNI N'GAOURE,3.169166667,13.26027778,30101,301,3,30101.0,3388,30101035,Karra 4,498
648,648,KOFO,404,179.0,225,VA,DOSSO,BOBOYE,BIRNI N'GAOURE,2.764722222,13.23638889,30101,301,3,30101.0,3389,30101067,Kofo,308
649,649,KORONKASSA PEULH,833,423.0,410,VA,DOSSO,BOBOYE,BIRNI N'GAOURE,2.854444444,13.25138889,30101,301,3,30101.0,3391,30101055,Koronkassa Peulh,324
650,650,KOURFARE,1262,553.0,709,VA,DOSSO,BOBOYE,BIRNI N'GAOURE,3.084166667,13.03944444,30101,301,3,30101.0,3395,30101039,Kourfare,435
651,651,KOURFARE,1262,553.0,709,VA,DOSSO,BOBOYE,BIRNI N'GAOURE,3.084166667,13.03944444,30101,301,3,30101.0,3395,30101040,Kourfare,262
652,652,MENE,324,155.0,169,VA,DOSSO,BOBOYE,BIRNI N'GAOURE,3.034444444,13.20194444,30101,301,3,30101.0,3400,30101022,Mene,204
653,653,OULEY,383,209.0,174,H,DOSSO,BOBOYE,BIRNI N'GAOURE,2.973055556,13.29527778,30101,301,3,30101.0,3403,30101062,Ouley,147
654,654,WAZEY,305,150.0,155,VA,DOSSO,BOBOYE,BIRNI N'GAOURE,2.974722222,13.34388889,30101,301,3,30101.0,3427,30101064,Wazey 1,217
655,655,WAZEY,305,150.0,155,VA,DOSSO,BOBOYE,BIRNI N'GAOURE,2.974722222,13.34388889,30101,301,3,30101.0,3427,30101065,Wazey 2,318
656,656,WAZEY,305,150.0,155,VA,DOSSO,BOBOYE,BIRNI N'GAOURE,2.974722222,13.34388889,30101,301,3,30101.0,3427,30101066,Wazey 3,259
657,657,BASSI PEULH,775,403.0,372,VA,DOSSO,BOBOYE,FABIDJI,3.022777778,13.0325,30102,301,3,30102.0,3442,30102048,Bassi Peulh,397
658,658,BILLINGOL BOYEDO,168,77.0,91,H,DOSSO,BOBOYE,FABIDJI,3.05,13.01972222,30102,301,3,30102.0,3446,30102043,Billingol Boyedo,228
659,659,BILLINGOL PEULH,307,141.0,166,VA,DOSSO,BOBOYE,FABIDJI,2.949166667,12.88805556,30102,301,3,30102.0,3449,30102063,Billingol Peulh,75
660,660,BIRNIEL ALFARI,339,170.0,169,VA,DOSSO,BOBOYE,FABIDJI,3.109444444,12.99222222,30102,301,3,30102.0,3452,30102041,Birniel Alfari,237
661,661,BIRNIEL IBRAHIM,1661,806.0,855,VA,DOSSO,BOBOYE,FABIDJI,2.993888889,13.04694444,30102,301,3,30102.0,3453,30102039,Birniel Ibrahim,439
662,662,BOMBOHI,368,159.0,209,VA,DOSSO,BOBOYE,FABIDJI,2.870555556,13.01111111,30102,301,3,30102.0,3460,30102045,Bombohi,328
663,663,FABIDJI,3989,1851.0,2138,VA,DOSSO,BOBOYE,FABIDJI,3.088333333,13.05777778,30102,301,3,30102.0,3478,30102001,Fabidji 1,409
664,664,FABIDJI,3989,1851.0,2138,VA,DOSSO,BOBOYE,FABIDJI,3.088333333,13.05777778,30102,301,3,30102.0,3478,30102002,Fabidji 2,449
665,665,FABIDJI,3989,1851.0,2138,VA,DOSSO,BOBOYE,FABIDJI,3.088333333,13.05777778,30102,301,3,30102.0,3478,30102003,Fabidji 3,324
666,666,FABIDJI,3989,1851.0,2138,VA,DOSSO,BOBOYE,FABIDJI,3.088333333,13.05777778,30102,301,3,30102.0,3478,30102004,Fabidji 4,369
667,667,FABIDJI,3989,1851.0,2138,VA,DOSSO,BOBOYE,FABIDJI,3.088333333,13.05777778,30102,301,3,30102.0,3478,30102005,Fabidji 5,340
668,668,FATALOULOU,219,98.0,121,VA,DOSSO,BOBOYE,FABIDJI,2.854722222,13.04833333,30102,301,3,30102.0,3486,30102019,Fataloulou,160
669,669,TONDO,763,400.0,363,VA,DOSSO,BOBOYE,FABIDJI,2.848888889,13.03527778,30102,301,3,30102.0,3488,30102006,Tondo 1,433
670,670,TONDO,763,400.0,363,VA,DOSSO,BOBOYE,FABIDJI,2.848888889,13.03527778,30102,301,3,30102.0,3488,30102007,Tondo 2,428
671,671,TONDO,763,400.0,363,VA,DOSSO,BOBOYE,FABIDJI,2.848888889,13.03527778,30102,301,3,30102.0,3488,30102008,Tondo 3,457
672,672,TONDO,1397,686.0,711,VA,DOSSO,BOBOYE,FABIDJI,2.848888889,13.03527778,30102,301,3,30102.0,3536,30102006,Tondo 1,433
673,673,TONDO,1397,686.0,711,VA,DOSSO,BOBOYE,FABIDJI,2.848888889,13.03527778,30102,301,3,30102.0,3536,30102007,Tondo 2,428
674,674,TONDO,1397,686.0,711,VA,DOSSO,BOBOYE,FABIDJI,2.848888889,13.03527778,30102,301,3,30102.0,3536,30102008,Tondo 3,457
675,675,HABIRI,629,288.0,341,VA,DOSSO,BOBOYE,FABIDJI,2.957222222,12.97416667,30102,301,3,30102.0,3499,30102049,Habiri,237
676,676,IRAH,1787,964.0,823,VA,DOSSO,BOBOYE,FABIDJI,2.787777778,13.19166667,30102,301,3,30102.0,3502,30102017,Irah 1,307
677,677,IRAH,1787,964.0,823,VA,DOSSO,BOBOYE,FABIDJI,2.787777778,13.19166667,30102,301,3,30102.0,3502,30102018,Irah 2,306
678,678,KARGUI BANGOU,18,10.0,8,VA,DOSSO,BOBOYE,FABIDJI,2.692222222,13.04,30102,301,3,30102.0,3504,30102025,Kargui Bangou,456
679,679,LARA,251,133.0,118,H,DOSSO,BOBOYE,FABIDJI,2.706666667,13.09166667,30102,301,3,30102.0,3509,30102029,Lara,85
680,680,LISSORE,398,212.0,186,CPT,DOSSO,BOBOYE,FABIDJI,2.870555556,12.94444444,30102,301,3,30102.0,3510,30102037,Lissore,253
681,681,RODJI DJERMA,177,100.0,77,VA,DOSSO,BOBOYE,FABIDJI,2.905277778,13.03555556,30102,301,3,30102.0,3517,30102054,Rodji Djerma,275
682,682,RODJI PEULH,1255,665.0,590,VA,DOSSO,BOBOYE,FABIDJI,3.114166667,13.00527778,30102,301,3,30102.0,3519,30102052,Rodji Peulh 1,275
683,683,RODJI PEULH,1255,665.0,590,VA,DOSSO,BOBOYE,FABIDJI,3.114166667,13.00527778,30102,301,3,30102.0,3519,30102053,Rodji Peulh 2,188
684,684,SIRA,314,156.0,158,H,DOSSO,BOBOYE,FABIDJI,3.109722222,12.98555556,30102,301,3,30102.0,3522,30102034,Sira ,362
685,685,SIRA LELESSO,235,121.0,114,H,DOSSO,BOBOYE,FABIDJI,3.047777778,13.1,30102,301,3,30102.0,3524,30102059,Sira Lelesso,159
686,686,SOUDA HAINI BABA KOIRA,247,126.0,121,VA,DOSSO,BOBOYE,FABIDJI,2.994722222,12.915,30102,301,3,30102.0,3526,30102060,Souda Haini Baba Koira,338
687,687,SOUGUI BANGAY,198,102.0,96,H,DOSSO,BOBOYE,FABIDJI,2.786388889,13.20861111,30102,301,3,30102.0,3527,30102027,sougui Bangay,70
688,688,TAIFA,398,190.0,208,H,DOSSO,BOBOYE,FABIDJI,2.735833333,12.95666667,30102,301,3,30102.0,3530,30102032,Taifa,107
689,689,TOMBO,322,171.0,151,H,DOSSO,BOBOYE,FABIDJI,2.730277778,13.08111111,30102,301,3,30102.0,3534,30102026,Tombo,74
690,690,TOMBO HASSANE,495,241.0,254,VA,DOSSO,BOBOYE,FABIDJI,2.831388889,13.05666667,30102,301,3,30102.0,3535,30102030,Tombo Hassane,225
691,691,TOROMBI,2423,1270.0,1153,VA,DOSSO,BOBOYE,FABIDJI,2.808611111,12.92777778,30102,301,3,30102.0,3537,30102023,Torombi 1,404
692,692,TOROMBI,2423,1270.0,1153,VA,DOSSO,BOBOYE,FABIDJI,2.808611111,12.92777778,30102,301,3,30102.0,3537,30102024,Torombi 2,400
693,693,GOMBEWA,1244,629.0,615,VA,DOSSO,BOBOYE,FAKARA,2.489444444,13.31916667,30103,301,3,30103.0,3550,30103006,GOMBEWA,306
694,694,GOMBEWA,1244,629.0,615,VA,DOSSO,BOBOYE,FAKARA,2.489444444,13.31916667,30103,301,3,30103.0,3550,30103007,GOMBEWA,375
695,695,GUIDAL,1193,623.0,570,VA,DOSSO,BOBOYE,FAKARA,2.629444444,13.25,30103,301,3,30103.0,3553,30103011,GUIDAL,249
696,696,KODO,1365,688.0,677,VA,DOSSO,BOBOYE,FAKARA,2.8,13.42916667,30103,301,3,30103.0,3559,30103019,KODO,296
697,697,KODO,1365,688.0,677,VA,DOSSO,BOBOYE,FAKARA,2.8,13.42916667,30103,301,3,30103.0,3559,30103020,KODO,344
698,698,MAROU BERI ZENO,139,70.0,69,H,DOSSO,BOBOYE,FAKARA,2.891944444,13.35388889,30103,301,3,30103.0,3566,30103024,MAROU BERI ZENO,78
699,699,MINGUI,332,165.0,167,H,DOSSO,BOBOYE,FAKARA,2.829166667,13.24111111,30103,301,3,30103.0,3568,30103013,MINGUI,165
700,700,TANNA KAINA,949,460.0,489,VA,DOSSO,BOBOYE,FAKARA,2.644722222,13.26694444,30103,301,3,30103.0,3570,30103008,TANNA KAINA,425
701,701,TANNA BERI,1109,517.0,592,VA,DOSSO,BOBOYE,FAKARA,2.687222222,13.24944444,30103,301,3,30103.0,3571,30103009,TANNA BERI,249
702,702,TANNA BERI,1109,517.0,592,VA,DOSSO,BOBOYE,FAKARA,2.687222222,13.24944444,30103,301,3,30103.0,3571,30103010,TANNA BERI,256
703,703,TOUDOU PEULH,87,48.0,39,VA,DOSSO,BOBOYE,FAKARA,2.749444444,13.37416667,30103,301,3,30103.0,3578,30103017,TOUDOU PEULH,26
704,704,BOGOL HIMA,1571,701.0,870,VA,DOSSO,BOBOYE,HARIKANASSOU,3.048055556,13.30583333,30104,301,3,30106.0,3582,30104004,Bogol Hima 1,361
705,705,BOGOL HIMA,1571,701.0,870,VA,DOSSO,BOBOYE,HARIKANASSOU,3.048055556,13.30583333,30104,301,3,30106.0,3582,30104005,Bogol Hima 2,333
706,706,BOGOL HIMA,1571,701.0,870,VA,DOSSO,BOBOYE,HARIKANASSOU,3.048055556,13.30583333,30104,301,3,30106.0,3582,30104006,Bogol Hima 3,357
707,707,BOGOL MAMAR,682,359.0,323,VA,DOSSO,BOBOYE,HARIKANASSOU,2.948611111,13.34861111,30104,301,3,30106.0,3583,30104007,Bogol Mamar,333
708,708,FANDOU DJADI,611,273.0,338,VA,DOSSO,BOBOYE,HARIKANASSOU,2.985,13.28361111,30104,301,3,30106.0,3597,30104023,Fandou Djadi,261
709,709,FANDOU DJIBO,211,110.0,101,VA,DOSSO,BOBOYE,HARIKANASSOU,2.914444444,13.30027778,30104,301,3,30106.0,3598,30104040,Fandou Djibo,229
710,710,FOULAN ZAM,291,132.0,159,H,DOSSO,BOBOYE,HARIKANASSOU,3.083611111,13.48638889,30104,301,3,30106.0,3600,30104039,Foulan Zam,112
711,711,GAMSA ZOUGOU,424,188.0,236,VA,DOSSO,BOBOYE,HARIKANASSOU,3.139722222,13.55694444,30104,301,3,30106.0,3601,30104037,Gamsa Zougou,200
712,712,GOROU KAINA,770,368.0,402,H,DOSSO,BOBOYE,HARIKANASSOU,3.113888889,13.46444444,30104,301,3,30106.0,3603,30104034,Gorou Kaina,279
713,713,KOMAGUINDI PEULH,270,110.0,160,VA,DOSSO,BOBOYE,HARIKANASSOU,2.985555556,13.60277778,30104,301,3,30106.0,3609,30104036,Komaguindi Peulh,149
714,714,KOMAGUINDI ZOU,368,159.0,209,VA,DOSSO,BOBOYE,HARIKANASSOU,3.069166667,13.60722222,30104,301,3,30106.0,3610,30104022,Komaguindi Zou,308
715,715,KOUBOUBI KOURA,1230,594.0,636,VA,DOSSO,BOBOYE,HARIKANASSOU,2.901111111,13.38444444,30104,301,3,30106.0,3611,30104018,Kouboubi Koura 1,355
716,716,KOUBOUBI KOURA,1230,594.0,636,VA,DOSSO,BOBOYE,HARIKANASSOU,2.901111111,13.38444444,30104,301,3,30106.0,3611,30104019,Kouboubi Koura 2,368
717,717,NIABERE BELLA,1240,611.0,629,VA,DOSSO,BOBOYE,HARIKANASSOU,2.938611111,13.32277778,30104,301,3,30106.0,3615,30104008,Niabere Bella 1,412
718,718,NIABERE BELLA,1240,611.0,629,VA,DOSSO,BOBOYE,HARIKANASSOU,2.938611111,13.32277778,30104,301,3,30106.0,3615,30104009,Niabere Bella 2,416
719,719,NIABERE BELLA PEULH,183,88.0,95,VA,DOSSO,BOBOYE,HARIKANASSOU,3.076666667,13.40083333,30104,301,3,30106.0,3616,30104010,Niabere Bella PEULH,127
720,720,NIABERE KAINA,1144,547.0,597,VA,DOSSO,BOBOYE,HARIKANASSOU,2.907777778,13.57027778,30104,301,3,30106.0,3618,30104013,Niabere Kaina ,359
721,721,NIABERE KAINA,1144,547.0,597,VA,DOSSO,BOBOYE,HARIKANASSOU,2.907777778,13.57027778,30104,301,3,30106.0,3618,30104042,Niabere Kaina ,319
722,722,SAMDE MOUSSA,251,126.0,125,VA,DOSSO,BOBOYE,HARIKANASSOU,3.049722222,13.25388889,30104,301,3,30106.0,3624,30104028,Samde Moussa,190
723,723,TOMBO PEULH,508,285.0,223,VA,DOSSO,BOBOYE,HARIKANASSOU,3.093055556,13.53611111,30104,301,3,30106.0,3633,30104035,Tombo Peulh,202
724,724,WAWARE,150,52.0,98,VA,DOSSO,BOBOYE,HARIKANASSOU,2.986666667,13.43583333,30104,301,3,30106.0,3635,30104025,Waware,141
725,725,ZAGORE,645,281.0,364,VA,DOSSO,BOBOYE,HARIKANASSOU,2.863055556,13.41805556,30104,301,3,30106.0,3637,30104026,Zagore,472
726,726,BANGOU KOUKOU,985,504.0,481,VA,DOSSO,BOBOYE,KANKANDI,3.196666667,12.98333333,30105,301,3,30107.0,3643,30105020,Bangou Koukou 1,205
727,727,BANGOUROUAL,485,254.0,231,VA,DOSSO,BOBOYE,KANKANDI,3.071666667,13.06444444,30105,301,3,30107.0,3644,30105014,Bangouroual,380
728,728,DEBE DEBE ZARMA,1793,807.0,986,VA,DOSSO,BOBOYE,KANKANDI,3.201666667,12.89805556,30105,301,3,30107.0,3651,30105011,Debe Debe Zarma 1,392
729,729,DEBE DEBE ZARMA,1793,807.0,986,VA,DOSSO,BOBOYE,KANKANDI,3.201666667,12.89805556,30105,301,3,30107.0,3651,30105012,Debe Debe Zarma 2,400
730,730,KAWARA,630,291.0,339,VA,DOSSO,BOBOYE,KANKANDI,3.199444444,13.12722222,30105,301,3,30107.0,3665,30105008,Kawara,298
731,731,KOLOBA,199,96.0,103,VA,DOSSO,BOBOYE,KANKANDI,3.003611111,12.955,30105,301,3,30107.0,3672,30105031,Koloba,160
732,732,KANKANDI,971,424.0,547,VA,DOSSO,BOBOYE,KANKANDI,3.166388889,12.99055556,30105,301,3,30107.0,3676,30105001,Kankandi I,338
733,733,SOSSO BANGOU,728,380.0,348,VA,DOSSO,BOBOYE,KANKANDI,3.170555556,13.10972222,30105,301,3,30107.0,3690,30105015,Sosso Bangou,465
734,734,SOUDA ZARMA,158,76.0,82,VA,DOSSO,BOBOYE,KANKANDI,3.073333333,13.04777778,30105,301,3,30107.0,3694,30105022,Souda Zarma,112
735,735,TOUNGA YAMBA,246,110.0,136,VA,DOSSO,BOBOYE,KANKANDI,3.131388889,13.02805556,30105,301,3,30107.0,3702,30105025,Tounga Yamba,159
736,736,BANGARIO ZOU,486,229.0,257,VA,DOSSO,BOBOYE,KIOTA,3.076388889,13.53638889,30106,301,3,30108.0,3721,30106022,Bangario Zou,220
737,737,BANGARIO BABA PEULH,92,48.0,44,VA,DOSSO,BOBOYE,KIOTA,3.105555556,13.4625,30106,301,3,30108.0,3723,30106037,Bangario baba Peulh,40
738,738,BANGARIO MOUSSA,795,360.0,435,VA,DOSSO,BOBOYE,KIOTA,3.209444444,13.49,30106,301,3,30108.0,3725,30106040,Bangario Moussa,474
739,739,BOGOL SADOU,134,68.0,66,VA,DOSSO,BOBOYE,KIOTA,3.032777778,13.48277778,30106,301,3,30108.0,3728,30106035,Bogol Sadou,80
740,740,KALLA BERI,278,138.0,140,VA,DOSSO,BOBOYE,KIOTA,3.058333333,13.25138889,30106,301,3,30108.0,3736,30106039,Kalla Beri,332
741,741,KIOTA MAYAKI,8784,4413.0,4371,VA,DOSSO,BOBOYE,KIOTA,3.035555556,13.41111111,30106,301,3,30108.0,3739,30106001,Kiota Mayaki 1,496
742,742,KIOTA MAYAKI,8784,4413.0,4371,VA,DOSSO,BOBOYE,KIOTA,3.035555556,13.41111111,30106,301,3,30108.0,3739,30106002,Kiota Mayaki 2,490
743,743,KIOTA MAYAKI,8784,4413.0,4371,VA,DOSSO,BOBOYE,KIOTA,3.035555556,13.41111111,30106,301,3,30108.0,3739,30106003,Kiota Mayaki 3,495
744,744,KIOTA MAYAKI,8784,4413.0,4371,VA,DOSSO,BOBOYE,KIOTA,3.035555556,13.41111111,30106,301,3,30108.0,3739,30106004,Kiota Mayaki 4,499
745,745,KIOTA MAYAKI,8784,4413.0,4371,VA,DOSSO,BOBOYE,KIOTA,3.035555556,13.41111111,30106,301,3,30108.0,3739,30106005,Kiota Mayaki 5,497
746,746,KIOTA MAYAKI,8784,4413.0,4371,VA,DOSSO,BOBOYE,KIOTA,3.035555556,13.41111111,30106,301,3,30108.0,3739,30106006,Kiota Mayaki 6,499
747,747,KIOTA MAYAKI,8784,4413.0,4371,VA,DOSSO,BOBOYE,KIOTA,3.035555556,13.41111111,30106,301,3,30108.0,3739,30106007,Kiota Mayaki 7,320
748,748,KIOTA MAYAKI,8784,4413.0,4371,VA,DOSSO,BOBOYE,KIOTA,3.035555556,13.41111111,30106,301,3,30108.0,3739,30106008,Kiota Mayaki 8,214
749,749,KOLBOU PEULH,417,205.0,212,VA,DOSSO,BOBOYE,KIOTA,2.996666667,13.6025,30106,301,3,30108.0,3746,30106019,Kolbou peulh,204
750,750,SOURGOUROU,286,157.0,129,H,DOSSO,BOBOYE,KIOTA,3.0675,13.50833333,30106,301,3,30108.0,3761,30106017,Sourgourou,151
751,751,TOMBO GABDAKOYE,399,209.0,190,VA,DOSSO,BOBOYE,KIOTA,3.074444444,13.405,30106,301,3,30108.0,3762,30106025,Tombo Gabdakoye,296
752,752,BOULAGA PEULH,234,121.0,113,VA,DOSSO,BOBOYE,KOYGOLO,3.285,13.84027778,30107,301,3,30109.0,3778,30107039,Boulaga Peulh,208
753,753,DINEY ZOUGOU,588,270.0,318,VA,DOSSO,BOBOYE,KOYGOLO,3.012222222,13.4625,30107,301,3,30109.0,3784,30107037,Diney Zougou,419
754,754,KARMA ZARMA,1916,932.0,984,VA,DOSSO,BOBOYE,KOYGOLO,3.110277778,13.45166667,30107,301,3,30109.0,3805,30107042,Karma Zarma 1,453
755,755,KARMA ZARMA,1916,932.0,984,VA,DOSSO,BOBOYE,KOYGOLO,3.110277778,13.45166667,30107,301,3,30109.0,3805,30107043,Karma Zarma 2,318
756,756,KOBE KAINA,145,58.0,87,VA,DOSSO,BOBOYE,KOYGOLO,3.026944444,13.60111111,30107,301,3,30109.0,3808,30107045,Kobe kaina,97
757,757,KONGORE PEULH,352,176.0,176,VA,DOSSO,BOBOYE,KOYGOLO,3.004444444,13.59055556,30107,301,3,30109.0,3813,30107051,Kongore Peulh,118
758,758,KOBE KIRE,529,245.0,284,VA,DOSSO,BOBOYE,KOYGOLO,2.915833333,13.73972222,30107,301,3,30109.0,3814,30107046,Kobe Kire,427
759,759,POUNGA,1217,608.0,609,VA,DOSSO,BOBOYE,KOYGOLO,3.075277778,13.66944444,30107,301,3,30109.0,3836,30107057,Pounga,497
760,760,YEDA,1353,637.0,716,VA,DOSSO,BOBOYE,KOYGOLO,2.951666667,13.64805556,30107,301,3,30109.0,3854,30107023,Yeda ,315
761,761,YENI PEULH,152,64.0,88,VA,DOSSO,BOBOYE,KOYGOLO,3.050555556,13.50027778,30107,301,3,30109.0,3855,30107059,Yeni Peulh,274
